CITY,LATITUDE,LONGITUDE
aach,47.85,8.85
aachen,50.7708,6.1053
aach linz,47.9,9.2
aalen,48.8333,10.1
aarbergen,50.25,8.0667
aasbuttel,54.0667,9.4333
aasen,47.9833,8.55
abach,48.9333,12.05
abbendorf,52.75,10.9167
abbenrode,52.25,10.7333
abbensen,52.3833,10.1833
abbenseth,53.5667,9.1
abberode,51.6167,11.2833
abbesbuttel,52.35,10.5667
abenberg,49.25,10.9667
abenheim,49.6772,8.2811
abens,53.6,7.7333
abensberg,48.8167,11.85
abentheuer,49.65,7.1
abersdorf,47.85,12.25
abersfeld,50.0667,10.3833
ablach,48.0167,9.2167
ablass,51.2333,12.95
abort,54.8833,8.45
absberg,49.15,10.8833
abspann,49.8333,12
abstatt,49.0711,9.2928
abstetter hof,49.0333,9.2667
abtei,49.6833,6.95
abteroda,50.9,10.0667
abterode,51.2,9.9333
abtlobnitz,51.0833,11.7167
abtsbessingen,51.25,10.7667
abtsdorf,51.9,12.7167
abtsgmund,48.8833,10
abtshagen,54.1833,13.0167
abtsteinach,49.5367,8.7875
abtswind,49.7667,10.3667
abtweiler,49.75,7.65
accum,53.55,8.0167
achberg,47.7167,12.4
achen,47.7,10.05
achenbach,50.8667,7.9667
achenmuhle,47.7833,12.2167
achering,48.35,11.7167
achern,48.6333,8.0667
achim,53.0333,9.0167
achkarren,48.0684,7.6277
achmer,52.4,7.9333
acholshausen,49.6447,9.9947
achselschwang,48.0333,11.05
achsheim,48.4833,10.8167
achslach,48.9667,12.9333
achstetten,48.2667,9.9
acht,50.3667,7.0667
achtelsbach,49.6167,7.0833
achterberg,52.2833,7.0667
achterhoek,51.5833,6.35
achternmeer,53.0833,8.1
achterwehr,54.3167,9.9667
achtrup,54.7833,9.0333
achum,52.2833,9.0833
ackendorf,52.2167,11.4333
acker,47.6,10.3667
ackerbach,50.2333,7.9833
ackerfelde,53.2333,12.35
ackern,54.7333,8.9667
adamsdorf,53.4333,13.0167
adamshof,53.7,13.0833
adamshoffnung,53.45,12.3667
adamswalde,53.1833,12.9333
addebull,54.6667,8.9
addenstorf,53.1,10.5
addrup,52.7333,8.0167
adelberg,48.7667,9.6
adelebsen,51.5833,9.75
adelhausen,47.6167,7.7667
adelheidsdorf,52.55,10.05
adelholzen,47.8167,12.6167
adelmannsdorf,49.2167,10.75
adelmannsfelden,48.95,10.0167
adelmannssitz,49.3333,10.6833
adelsberg,47.7167,7.8333
adelsborn,51.45,10.35
adelschlag,48.8333,11.2167
adelsdorf,51.3167,13.5833
adelshausen,48.15,10.9333
adelsheim,49.4036,9.3933
adelshofen,48.1833,11.1167
adelsried,48.4167,10.7167
adelstetten,48.85,9.75
adelzhausen,48.35,11.1333
adenau,50.3833,6.9333
adenbach,49.6667,7.65
adenberg,48.5833,13.1167
adenbuttel,52.3833,10.45
adendorf,53.2833,10.45
adensen,52.1833,9.7333
adenstedt,52.25,10.1667
adersbach,49.2639,8.9567
adersheim,52.15,10.4667
adersleben,51.9,11.1833
aderstedt,51.7667,11.6833
adldorf,48.6333,12.8333
adlersberg,49.05,12.0167
adlershof,52.45,13.5333
adlhausen,48.7833,12.0167
adlkofen,48.55,12.2667
adlum,52.2333,10.0667
admannshagen,54.1333,12
admannshagen bargeshagen,54.1167,11.9833
adolzfurt,49.1656,9.4486
adorf,50.3167,12.2667
aebtissinwisch,53.9667,9.2833
aegidienberg,50.6667,7.3
aegypten,52.45,7.85
aengenesch,51.5333,6.3667
aerding,48.3,11.9333
aerzen,52.0333,9.2667
affalter,50.65,12.7667
affalterbach,48.9167,9.3167
affaltern,48.4833,10.7333
affalterthal,49.7,11.2833
affalterwang,48.8167,10.2
affaltrach,49.1367,9.3839
affhollerbach,49.75,8.9
affing,48.4667,10.9833
affinghausen,52.7833,8.8833
affler,50.0167,6.15
affoldern,51.1667,9.1
affolterbach,49.5956,8.8556
afholderbach,50.9333,8.1333
aflen,50.1833,7.0333
aftersberg,47.8333,7.9333
aftholderbach,50.2167,7.85
aftholderberg,47.9,9.2333
aga,50.95,12.0833
agatharied,47.7667,11.8333
agathenburg,53.5667,9.5333
agawang,48.3667,10.6833
agelsberg,48.65,11.5
agenbach,48.7,8.5833
agethorst,54.0167,9.4333
agg,47.6667,12.15
aglasterhausen,49.3569,8.9869
agnesdorf,51.4833,11.0833
agneshof,53.7833,13.75
agterhorn,52.6167,6.7667
aham,48.0167,12.2333
ahaus,52.0667,7
ahausen,52.55,7.9167
ahden,51.6,8.6333
ahe,50.8333,7.45
ahegg,47.7167,9.85
ahl,50.3,9.4
ahlbach,50.4333,8.0833
ahlbeck,53.9333,14.2
ahlberg,51.45,9.5167
ahlbershausen,51.6167,9.65
ahlde,52.35,7.3333
ahlden,52.7667,9.55
ahldorf,48.45,8.75
ahle,52.1,7.05
ahlefeld,54.4,9.6667
ahlem,52.3833,9.6667
ahlen,51.75,7.9167
ahlenberg,51.4167,7.4667
ahlendorf,50.9833,11.9833
ahlerstedt,53.4,9.45
ahlhorn,52.9,8.2333
ahlintel,52.15,7.4667
ahlke,51.6833,8.2667
ahlsdorf,51.8333,13.2167
ahlsen,52.3,8.6667
ahlstadt,50.5333,10.6833
ahlten,52.3667,9.9
ahlum,52.1667,10.6
ahmsen,52.7833,7.6333
ahmstorf,52.3167,10.9
ahnatal,51.35,9.3833
ahnebeck,52.5333,10.9
ahneby,54.7167,9.7333
ahnsbeck,52.6167,10.3
ahnsen,52.2667,9.1
aholfing,48.95,12.4667
aholming,48.7333,12.9167
ahorn,50.2333,10.95
ahornberg,49.85,12.45
ahornhof,49.5333,9.6
ahorntal,49.85,11.4333
ahrbergen,52.2333,9.8833
ahrbruck,50.4667,6.9833
ahrdt,50.7,8.4667
ahrem,50.7833,6.7667
ahrendsee,54.2167,13.1333
ahrensberg,54.4833,9.6833
ahrensbock,54.0167,10.5833
ahrensboek,53.7167,11.5333
ahrensbok,54.0167,10.5833
ahrensburg,53.6833,10.25
ahrensdorf,52.1667,14.0833
ahrensfelde,52.5833,13.5833
ahrenshagen,53.6833,12.3167
ahrenshoft,54.55,9.0667
ahrenshoop,54.3833,12.4333
ahrensmoor,53.3833,9.5
ahrenswohlde,53.3833,9.4667
ahrenviol,54.5333,9.2
ahrenviolfeld,54.5333,9.2833
ahrhutte,50.4,6.7333
ahrweiler,50.55,7.0833
ahsen,51.7,7.3167
ahsen oetz,52.9667,9.0833
ahstedt,52.2167,10.1
ahutte,50.3333,6.7667
aibling,47.8667,12
aich,48.6167,9.2333
aicha,48.4667,11.1333
aicha vorm wald,48.6833,13.3
aichach,48.4667,11.1333
aichat,48.0333,12.0333
aichelau,48.2833,9.4
aichelberg,48.6333,9.5667
aichen,47.6833,8.2667
aichhalden,48.2667,8.4167
aichhof,49.1667,11.8
aichschiess,48.75,9.4
aichstetten,47.9,10.0833
aichtal,48.6333,9.2667
aichwald,48.7667,9.3833
aidenau,49.3667,10.2667
aidenbach,48.5667,13.1
aidenried,47.95,11.15
aidhausen,50.15,10.4333
aidling,47.7167,11.25
aidlingen,48.6667,8.9167
aigan,48.3,13.2667
aigen,48.3,13.2667
aigendorf,48.1667,9.7167
aiging,47.9,12.6167
aiglkofen,48.5667,12.5333
aiglsbach,48.7,11.7167
aiglsdorf,48.5167,11.7833
aiglsod,48.5833,13.8
aigner,48.3333,13.1833
ailertchen,50.6,7.9333
ailingen,47.6833,9.5
ailringen,49.3736,9.7536
ailsbach,49.7167,10.7167
aindling,48.5167,10.95
aindorf,47.9833,12.3667
ainghausen,51.4,7.9333
ainhofen,48.4,11.3833
ainring,47.8167,12.95
airlenbach,49.5892,8.9258
aisch,49.7167,10.8833
aischfeld,48.3333,8.4667
aising,47.8333,12.1167
aislingen,48.5,10.45
aistaig,48.3167,8.5667
aiterbach,48.45,11.6
aiterhofen,48.85,12.6167
aitern,47.8,7.9
aitersteinering,48.1667,11.9333
aitrach,47.9333,10.0833
aitrang,47.8167,10.5333
aixheim,48.1,8.6833
aix la chapelle,50.7708,6.1053
akademisch neuendorf,54.0833,13.5167
aken,51.85,12.05
alach,50.9833,10.9333
albach,50.55,8.8
albaching,48.1167,12.1167
albachten,51.9333,7.5333
albaxen,51.8167,9.4
albbruck,47.6,8.1333
albeck,48.4833,10.05
alber,48.4167,10
albernau,50.55,12.65
albernhof,49.3667,12.65
alberoda,50.6167,12.7167
alberode,51.1833,9.9333
albers,47.9167,9.9333
albersbach,49.5,7.55
albersdorf,51.2833,12.2667
albershausen,48.6833,9.5667
albersloh,51.8667,7.75
albersreuth,49.3,10.9167
albersrieth,49.6667,12.3
albersroda,51.2833,11.7167
alberstedt,51.45,11.6333
albersweiler,49.2192,8.03
albert,47.5833,8.1167
albertaich,48.0167,12.3667
alberthofen,50.6333,7.6167
albertinenhof,53.4333,11
albertsdorf,54.1167,12.2333
albertshausen,49.6936,9.93
albertshausen bei bad kissingen,50.2,9.9833
albertshofen,47.7833,9.6333
albertstadt,51.0833,13.7667
alberweiler,47.6667,9.6667
alberzell,48.45,11.3333
albessen,49.5167,7.3333
albfuhren,47.6333,8.4833
albig,49.7736,8.1214
albingshausen,50.2833,10.6167
albis,47.6333,10.35
albisheim,49.6494,8.0967
albishofen,47.9333,10.2333
albrechts,50.6167,10.6333
albrechts teerofen,52.4,13.1667
albrechtshain,51.3,12.5667
albrechtshof,53.3333,14.1167
albringen,51.3833,7.9
albsfelde,53.6833,10.7
albshausen,50.55,8.4333
albsheim,49.5822,8.1825
albstadt,48.25,9.0167
albstedt,53.3333,8.7167
albungen,51.2333,10
aldekerk,51.4333,6.4333
aldenhoven,50.9,6.2833
aldenrade,51.5167,6.7333
aldersbach,48.6,13.0833
aldingen,48.1,8.7
aldorf,52.7333,8.5
aleman,51.5,10.5
alendorf,50.3667,6.65
alerheim,48.85,10.6167
alesheim,49.05,10.8667
aletshausen,48.2,10.3833
alexander,51.3,8.3667
alexanderdorf,52.1667,13.3333
alexandersbad,50.0167,12.0167
alf,50.05,7.1167
alfdorf,48.85,9.7167
alfeld,51.9833,9.8333
alfen,51.65,8.7
alfhausen,52.5,7.95
alflen,50.1833,7.0333
alfstedt,53.55,9.0667
alfter,50.7333,7.0167
alfter gielsdorf,50.7333,7.0167
algenroth,50.1667,7.8833
algenstedt,52.6,11.45
algermissen,52.25,9.9667
algertshausen,48.4667,11.1167
algishofen,48.9167,9.9
alhausen,51.75,9.05
alheim,51.0333,9.6667
aligse,52.4,9.9833
alitzheim,49.9333,10.3333
aljarn,53.1667,10.6167
alken,50.25,7.45
alkersleben,50.85,11.0333
alkersum,54.7167,8.5167
alkofen,48.6333,13.1333
alkoven,48.6333,13.1333
allach,48.2,11.45
alladorf,49.9667,11.3833
allagen,51.4833,8.2333
allee,53.75,10.2167
allemuhl,49.4272,8.9558
allenbach,49.75,7.1667
allenberg,48.45,11.2167
allenbuttel,52.4167,10.6333
allendorf,51.2833,9.9833
allendorf an der lahn,50.55,8.6167
allendorf an der lumda,50.6833,8.8333
allendorf eder,51.0333,8.6667
allenfeld,49.8667,7.6667
allensbach,47.7167,9.0667
allerbuttel,52.4167,10.6333
allerheilgen,51.1333,6.75
alleringersleben,52.2167,11.1333
allermohe,53.4833,10.1333
allersbach,48.4667,12.45
allersberg,49.2542,11.2411
allersburg,49.3,11.7833
allersdorf,50.6167,11.0667
allersehl,52.7333,10.5167
allersfelden,49.1167,11.6167
allershagen,54.0833,12
allershausen,51.65,9.65
allerstedt,51.25,11.45
allertsham,48.0167,12.3667
allertshausen,50.65,8.85
allertshofen,49.7467,8.7158
alleshausen,48.1,9.6167
allewinden,47.7333,9.8333
allfeld,49.3253,9.2411
alling,48.15,11.3
allinghausen,50.9833,7.6333
allisreute,47.7,9.6667
allmannshausen,47.9333,11.35
allmannshofen,48.6167,10.8
allmannsweier,48.3667,7.7833
allmannsweiler,47.6667,9.5
allmendingen,48.3333,9.7167
allmenhausen,51.2333,10.7333
allmersbach,48.9833,9.3833
allmersbach am weinberg,48.9833,9.3833
allmersbach im tal,48.9,9.4667
allmershausen,50.8833,9.65
allmethofen,48.1333,9.95
allmosen,51.5833,14.1
allmus,50.6,9.8167
allna,50.7667,8.6667
allrode,51.6833,10.9667
allstedt,51.4,11.3833
allworden,53.8167,9.3
allzunah,50.6167,10.8667
almdorf,54.5833,9.0167
alme,51.45,8.6167
almena,52.1,9.0833
almersbach,50.6833,7.6333
almerswind,50.3833,11
almertsham,47.95,12.3167
almke,52.35,10.85
almsdorf,51.2667,11.8667
almstedt,52.05,9.9667
alpe,50.9667,7.5667
alpen,51.5833,6.5167
alpenrod,50.6333,7.8667
alperstedt,51.1,11.05
alpirsbach,48.3333,8.4167
alsbach,50.4667,7.6667
alsbach hahnlein,49.7386,8.5958
alsberg,50.2667,9.4167
alsdorf,50.8833,6.1667
alse,50.75,7.55
alsenberg,50.3,11.9333
alsenborn,49.4833,7.9167
alsenz,49.7167,7.8167
alsfeld,50.75,9.2667
alsheim,49.7681,8.3403
alsleben,51.7,11.6667
alsmoos,48.5167,11.0333
alstaden,51.4667,6.8333
alstatte,51.95,7.2667
alsterdorf,53.6,10
alstertal,53.6333,10.05
alswede,52.3333,8.5667
alsweiler,49.4667,7.0667
alt barenaue,52.4167,8.1167
alt bennebek,54.3833,9.4333
alt bork,52.1833,12.8667
alt brieselang,52.6167,13.0167
alt buchhorst,52.4333,13.85
alt bukow,54,11.6
alt duvenstedt,54.3667,9.65
alt falkenhagen,53.5833,12.6833
alt gaarz,53.2833,12.7
alt garge,53.2667,10.8
alt golm,52.3,14.1167
alt jabel,53.25,11.1667
alt jargenow,53.9667,13.3167
alt kabelich,53.4833,13.4833
alt karin,54,11.7667
alt kosenow,53.7833,13.75
alt krenzlin,53.3167,11.3
alt madlitz,52.3833,14.2833
alt mahlisch,52.4667,14.4167
alt mengede,51.5667,7.4
alt meteln,53.75,11.35
alt molln,53.6167,10.65
alt muhlendorf,54.2167,9.8667
alt negentin,54,13.35
alt pansow,54.05,13.25
alt panstorf,53.75,12.6667
alt plestlin,53.9667,13.2333
alt ravenhorst,54.2,12.7333
alt reddevitz,54.3333,13.6833
alt rehse,53.5,13.1667
alt ruppin,52.95,12.85
alt sammit,53.65,12.2167
alt sassitz,54.4,13.4
alt schadow,52.1333,13.95
alt schlagsdorf,53.75,11.55
alt schonau,53.5847,12.7338
alt schwerin,53.5167,12.3667
alt stahnsdorf,52.2833,13.8833
alt stassow,54.0333,12.6
alt steinbeck,53.6333,11.0833
alt suhrkow,53.8,12.65
alt tellin,53.85,13.25
alt tucheband,52.5333,14.5167
alt wallmoden,52.0333,10.3167
alt wetten,51.5833,6.2833
alt zachun,53.4833,11.3333
alt zauche,51.9167,14.0167
alt zeschdorf,52.4333,14.4333
altach,47.5667,10.2833
altastenberg,51.1833,8.4667
altbabensham,48.0833,12.2833
altbach,48.7333,9.3833
altbarnim,52.6833,14.2667
altbelgern,51.4833,13.1833
altbellin,52.4833,12.1667
altbensdorf,52.4167,12.3333
altbernsdorf,51.05,14.85
altbessingen,50.0333,9.9833
altbierlingen,48.25,9.75
altbrandsleben,52.0667,11.25
altbreitenfelderhof,49.3833,7.3
altbulach,48.6667,8.7167
altchemnitz,50.8167,12.9167
altdobern,51.65,14.0333
altdorf,48.15,12.1833
alte drusel,51.3,9.4
alteburg,50.9876,12.4368
altefahr,54.3167,13.1167
alteglofsheim,48.9167,12.2
alteiselfing,48.0333,12.25
alten,51.8167,12.2
alten buseck,50.6167,8.75
altena,51.3,7.6667
altenahr,50.5167,7
altenau,51.4167,13.2667
altenbach,51.35,12.6833
altenbamberg,49.7833,7.8333
altenbeichlingen,51.2167,11.2333
altenbeken,51.7667,8.9333
altenberg,50.7667,13.7667
altenberga,50.8333,11.5333
altenberge,52.05,7.4667
altenbergen,50.8333,10.6167
altenbeuern,47.7833,12.15
altenbeuren,47.7833,9.3167
altenbeuthen,50.6,11.6
altenbochum,51.4833,7.25
altenboitzen,52.8167,9.5167
altenbrak,51.7333,10.9333
altenbrendebach,50.7667,7.7833
altenbruch,53.8167,8.7667
altenbuch,48.1833,12.7
altenbucken,52.7833,9.15
altenburg,50.9833,12.45
altenburger land,50.96,12.42
altencelle,52.6,10.1167
altendambach,50.5667,10.7167
altendettelsau,49.3,10.7667
altendiez,50.3667,7.9833
altendorf,50.6,7.0167
altenerding,48.3,11.9167
altenesch,53.1333,8.6167
altenessen,51.4833,7
altenfeld,51.25,8.4333
altenfelde,53.7,10.35
altenfelden,49.2667,11.2167
altenfurt,48.55,11.2833
altengeseke,51.5667,8.25
altenglan,49.55,7.4667
altengonna,50.9833,11.5667
altengors,53.9,10.2
altengottern,51.1667,10.5667
altengrabow,52.2,12.2
altengroitzsch,51.15,12.25
altengronau,50.25,9.6167
altenhagen,53.6667,12.0667
altenhain,50.1667,8.4667
altenhaina,51.0333,8.9333
altenhammer,49.4,12.3167
altenhasslau,50.1833,9.2
altenhasungen,51.3333,9.2333
altenhausen,49.1217,9.7914
altenheerse,51.65,9.05
altenheim,48.4667,7.8
altenhellefeld,51.3167,8.1
altenhof,52.9167,13.7167
altenhofen,50.6667,7.4667
altenholz,54.4,10.1333
altenhorst,52.4833,9.75
altenkaisen,48.6167,12.8
altenkessel,49.25,6.9167
altenkirchen,49.45,7.3167
altenkleusheim,51,7.9167
altenkrempe,54.1333,10.8333
altenkunstadt,50.1333,11.25
altenlotheim,51.1167,8.9167
altenmarkt,47.7833,12.1333
altenmarkt an der alz,48,12.5333
altenmedingen,53.1333,10.6
altenmellrich,51.5333,8.2667
altenmittlau,50.15,9.15
altenmoor,53.7667,9.5667
altenmunster,48.4667,10.6
alteno,51.8667,13.8167
altenoythe,53.05,7.8833
altenpleen,54.35,12.9333
altenplos,49.9833,11.5167
altenrade,54.0833,10.1667
altenrath,50.85,7.2
altenreit,48.7,13.2333
altenried,49.4333,12.6333
altenriet,48.5833,9.2167
altenroda,51.25,11.5667
altenruthen,51.5,8.4167
altensalzkoth,52.75,10.0833
altensalzwedel,52.7667,11.1833
altenschlirf,50.55,9.4
altenschonbach,49.8167,10.4
altenschwand,47.6333,7.9833
altensenne,51.7667,8.7
altensien,54.3667,13.6833
altenspeckfeld,49.6667,10.4
altenstadt,50.2833,8.95
altenstadt an der waldnaab,49.8,12.1667
altensteig,48.5833,8.6
altensteinreuth,49.8833,11.85
altenstuhlen,53.5667,8.9333
altenthann,49.1,12.3
altentreptow,53.6833,13.25
altentreswitz,49.5833,12.3667
altenvers,50.7167,8.6167
altenwalde,53.8167,8.6833
altenweddingen,52,11.5333
altenweiher,49.65,11.75
altenwerder,53.5167,9.9167
altenwillershagen,54.25,12.5667
altenzaun,52.75,12.0333
alter graben,51.05,14.4833
alterdorf,49.1333,12.75
alterhofen,48.8448,12.6245
alterkulz,50.0333,7.4667
alterode,51.6667,11.3833
altersbach,50.7,10.5333
altersberg,48.6,12.65
altershausen,49.6833,10.6
alterstedt,51.1,10.55
altertheim,49.7167,9.75
altes lager,52.0167,13
altfalter,49.4,12.2167
altfalterbach,48.5167,11.8667
altfaltern,48.75,13.2833
altfeld,49.8278,9.5619
altforweiler,49.2667,6.7
altfranken,51.0333,13.65
altfraunhofen,48.45,12.1667
altfriesack,52.85,12.9
altgalow,53,14.1667
altgarz,52.7833,12.3667
altgaude,53.5833,7.5667
altglashutten,47.85,8.1167
altglienicke,52.4167,13.55
altglietzen,52.8333,14.0833
altglobsow,53.1167,13.1333
altgmain,48.5,12.75
althagen,54.3667,12.4167
althaidhof,49.8333,11.6333
althausen,49.4708,9.745
althegnenberg,48.2333,11.0667
altheim,47.8167,9.25
altheim ob weihung,48.3,9.9833
althen,51.3333,12.5167
althengstett,48.7333,8.8167
althirschstein,51.2667,13.4
althof,54.0833,11.9333
althornbach,49.2,7.3667
althueb,49.0167,10.2167
althutte,47.7833,8.15
althuttendorf,52.9667,13.8
altingen,48.55,8.9
altisheim,48.7333,10.8833
altisried,47.9667,10.3833
altjessnitz,51.7,12.3167
altjuhrden,53.3667,8.0833
altkalen,53.9,12.75
altkamp,54.3167,13.4167
altkatterbach,48.4667,10.7
altkirchen,50.9333,12.35
altkloster,53.4667,9.6833
altkoslarn,49.8167,11.9333
altkrautheim,49.3783,9.6386
altl,48.0167,12.1833
altlandsberg,52.5667,13.7333
altlay,49.9833,7.2667
altleiningen,49.5075,8.0733
altleis,51.25,13.5667
altludersdorf,53.0333,13.2
altluneberg,53.5333,8.8167
altlussheim,49.3017,8.4992
altmannsdorf,49.9333,10.4333
altmannsgrun,50.4333,12.2
altmannshofen,47.8833,10.05
altmannstein,48.9,11.65
altmanstein,48.9,11.65
altmerdingsen,52.4667,10.1333
altmersleben,52.6833,11.4333
altmittweida,50.9667,12.95
altmoorhausen,53.0833,8.3667
altmorschen,51.0667,9.6167
altmunster,48.3833,11.25
altmyhl,51.0833,6.1833
altnau,51.75,13.9833
altneudorf,49.4669,8.8031
altoberndorf,48.2833,8.6
altomunster,48.3833,11.25
altona,53.2333,11.4333
altotting,48.2333,12.6833
altrandsberg,49.1167,12.75
altranft,52.7667,14.0833
altranstadt,51.3167,12.1833
altratjensdorf,54.2333,11
altreetz,52.7667,14.1667
altreichenau,48.7667,13.7333
altrich,49.95,6.9167
altrip,49.4356,8.4947
altrosenthal,52.55,14.2833
altrottmannsdorf,50.6667,12.3833
altscheid,50.0167,6.4
altschonau,48.9,13.4667
altschweier,48.7,8.1667
altshausen,47.9333,9.5333
altstadt,52.4167,12.5333
altstadt waldenburg,50.8667,12.6167
altstadten,47.4833,10.2833
altstetten,48.3,11.2833
altstockach,48.15,12
altstrimmig,50.1,7.3
alttann,47.8333,9.7833
altthymen,53.2333,13.1667
alttrebbin,52.6833,14.25
altusried,47.8,10.2167
altwarmbuchen,52.4333,9.8667
altwarp,53.75,14.2833
altweidelbach,49.9833,7.5667
altweilnau,50.3167,8.4167
altwied,50.4833,7.4667
altwiedermus,50.2333,9.05
altwigshagen,53.7,13.8333
altwistedt,53.4167,8.9167
altwittenbek,54.3667,10.05
altwriezen,52.7333,14.2
altwustrow,52.7667,14.2
altzschillen,51,12.7667
alverdissen,52.0333,9.1333
alvern,52.65,10.2
alverskirchen,51.9167,7.8167
alvesen,53.4333,9.8833
alveslohe,53.7833,9.9167
alvesse,52.2167,10.3833
alxing,48.0167,11.9333
alzenau,50.0833,9.0667
alzenau in unterfranken,50.0833,9.0667
alzesberg,48.75,13.4833
alzey,49.7517,8.1161
alzgern,48.25,12.75
alzheim,50.2833,7.2333
am bahnhof,51.8833,8.95
am berge,52.2,7.05
am bruch,51.5667,6.1333
am busch,51.5,7.6667
am damm,52.2333,8.2833
am dammsteg,51.1833,6.85
am heidland,52.6,9.7
am see,47.75,11.7333
am sonnenberg,53.3833,10.8833
am turm,48.2833,8.2
am weinberg,52.6333,12.8833
amalienhof,53.3833,12.8167
ambach,47.8667,11.35
amberg,49.4414,11.8622
amecke,51.3,7.95
amelgatzen,52.0333,9.35
amelhausen,52.95,8.3333
amelinghausen,53.1167,10.2167
amelith,51.7,9.5167
ameln,50.9833,6.4333
amelsburen,51.8833,7.6
amerang,48,12.3167
amerbach,48.9,10.7
amerdingen,48.7333,10.4833
amerika,50.7,12.5167
amern,51.2333,6.25
amesdorf,51.7667,11.6
amlingstadt,49.85,11
amlishagen,49.2642,9.9622
ammelbruch,49.1,10.4667
ammeldingen,49.9,6.25
ammeloe,52.0667,6.7833
ammelshain,51.3,12.6333
ammelstadt,50.7333,11.3167
ammendorf,51.4333,11.9833
ammerbach,50.9,11.55
ammerbuch,48.5547,8.9681
ammerland,47.9,11.3333
ammern,51.2333,10.45
ammerndorf,49.4,10.8667
ammersbek,53.7,10.2
ammerstetten,48.2833,9.9667
ammerthal,47.7333,10.9833
ammertsweiler,49.0894,9.5186
amoltern,48.1273,7.6784
amonau,50.9,8.6833
amoneburg,50.0333,8.2667
amorbach,49.6442,9.2203
amoshof,49.5667,7.7
ampen,51.55,8.05
ampermoching,48.3,11.4833
amperpettenbach,48.3167,11.5333
ampertshausen,48.4167,11.6833
ampferbach,49.85,10.7333
ampfing,48.2667,12.4167
ampfurth,52.0667,11.3167
ampleben,52.1833,10.75
amrichshausen,49.2828,9.7428
amsdorf,51.4667,11.7333
amsham,48.45,13.1667
amshausen,52.0167,8.4167
amstetten,48.5667,9.85
amteroth,50.6667,7.6667
amtmannsdorf,49,11.5333
amtsberg,50.75,13.0056
amtzell,47.7,9.75
an der chaussee,52.35,9.0333
an der wae,51.2,6.1333
anatswald,47.35,10.2667
anbau,50.75,12.75
andechs,47.9833,11.1833
andel,49.9,7.05
andelfingen,48.15,9.4167
andelshofen,47.7833,9.1833
andenhausen,50.6667,10.0667
anderbeck,51.9833,10.9333
anderlingen,53.3667,9.3
andernach,50.4333,7.4
anderten,52.3667,9.85
andervenne oberdorf,52.5167,7.5833
andisleben,51.0833,10.9167
andorf,52.6667,7.8167
andreasberg,51.3333,8.4333
anemolter,52.55,9.0667
angelbachtal,49.2225,8.8103
angelbrechting,48.15,11.8167
angelburg,50.8167,8.45
angelmodde,51.9167,7.6833
angelroda,50.75,10.8667
angelsberg,48.3667,12.4833
angenrod,50.7667,9.2
anger,47.6667,11.5833
angerhausen,51.3833,6.7333
angerhofe,48.4667,11.55
angermund,51.3333,6.7833
angermunde,53.0333,14
angern,52.35,11.7333
angersbach,50.6167,9.45
angersdorf,51.4667,11.9167
angerstein,51.6167,9.6
angfeld,49.4667,11.7
anglberg,48.45,11.7667
anhausen,48.2833,9.5
anhauserhofe,48.85,10.6667
anhofen,48.15,10.6
anholt,51.85,6.4333
ankelohe,53.6333,8.9
anker,53.6833,10.6333
ankershagen,53.4833,12.9667
anklam,53.8667,13.7
ankum,52.55,7.8833
anleng,48.5,13.1667
annaberg,50.5667,13
annaberg buchholz,50.5667,13
annaburg,51.7333,13.0333
annahutte,51.5667,13.9
annarode,51.55,11.4
annelsbach,49.7806,8.9592
annen,51.45,7.3667
annerod,50.5667,8.75
anning,47.9833,12.5667
annweiler,49.2,7.9667
annweiler am trifels,49.2,7.9667
anraff,51.1333,9.1333
anrath,51.2833,6.4667
anreppen,51.75,8.5667
anried,48.35,10.5667
anrochte,51.5667,8.3333
anrode,51.2667,10.3333
ansbach,49.3,10.5833
anschau,50.3,7.1
anspach,50.3,8.5167
antdorf,47.75,11.3
antesberg,48.65,13.4333
antfeld,51.3667,8.4667
antholing,47.95,11.9167
antholling,48.6167,13.2833
antoniusheim,52.0667,6.85
antonshohe,50.5,12.7667
antonsthal,50.5,12.7667
antrifttal,50.7667,9.1833
antrup,51.7333,7.2667
antweiler,50.4,6.8333
antwort,47.9,12.3
anwalting,48.4667,10.9333
anwanden,49.4,10.9167
anzefahr,50.8333,8.8667
anzenkirchen,48.4333,13.0167
anzenreuth,48.65,13.4833
anzing,47.9167,12.2667
apelern,52.3,9.3333
apelnstedt,52.2,10.6333
apen,53.2167,7.8
apenburg,52.7167,11.2
apensen,53.4333,9.6167
apfeldorf,47.9,10.9333
apfeldorfhausen,47.9,10.9333
apfelstadt,50.9,10.8833
apfelstetten,48.3667,9.4833
apfeltrach,48.0167,10.5
apfeltrang,47.8333,10.5833
apfingen,48.15,9.85
apolda,51.0167,11.5
apollensdorf,51.8833,12.55
apostel,52.05,11.2
appel,53.3833,9.75
appeldorn,51.7167,6.3333
appelhagen,53.8167,12.5333
appelhulsen,51.9,7.4167
appeln,53.45,8.9
appelshof,54.1,13.0833
appen,53.65,9.7333
appenberg,50.0667,11.3833
appendorf,48.05,9.8
appenheim,49.93,8.0333
appenhofen,49.1403,8.0828
appenrode,51.5667,10.7333
appensee,49.0667,10.0667
appenthal,49.35,7.95
appenweier,48.5333,7.9833
appenweir,48.5333,7.9833
appercha,48.3667,11.5667
appersdorf,48.4833,12.1167
appertshofen,48.8667,11.4667
appetshofen,48.8167,10.6
arbach,50.2833,7.05
arberg,49.15,10.6167
arbergen,53.05,8.9333
arbketal,51.9667,11
arborn,50.5833,8.1833
arbshagen,54.3333,12.8333
arbste,52.7833,8.9833
archsum,54.8667,8.4
ardestorf,53.4333,9.7667
ardey,51.4333,7.3833
ardorf,53.5333,7.7
aremberg,50.4167,6.8
arenborn,51.6,9.65
arendsee,52.8667,11.4833
arenholz,54.55,9.4833
arenrath,49.95,6.7333
arensberg,52.6833,11.5833
arensdorf,51.7167,12.0167
arenshausen,51.3833,9.9667
arenzhain,51.6667,13.5167
aresing,48.2833,12.6
aretsried,48.3,10.65
arfrade,53.9167,10.6
arft,50.3833,7.0833
arfurt,50.4,8.2
argen,47.6667,10.0833
argenbuehl,47.6867,9.9581
argenbuhl,47.6667,9.9333
argenschwang,49.8833,7.7
argenstein,50.75,8.7333
argenthal,49.9667,7.6
arget,47.9333,11.65
arheilgen,49.9133,8.65
arholzen,51.8667,9.5667
ariendorf,50.5333,7.3
arkebek,54.1667,9.25
arkona,54.6833,13.4333
arlaching,47.9167,12.5
arle,53.6167,7.4
arlen,47.7167,8.85
arlesried,48.0833,10.35
arlewatt,54.5333,9.0833
armenhof,50.5667,9.7833
armsen,52.9,9.3333
armsfeld,51.05,9.0667
armsheim,49.8097,8.0567
armstedt,53.9667,9.85
armstorf,48.5667,12.8167
arnach,47.85,9.9
arnbach,48.3333,11.35
arnberg,48.4167,11.25
arnbruck,49.1333,13
arndorf,48.4167,12.05
arneburg,52.6667,12
arnegg,48.4167,9.8833
arnetsried,49,13.05
arnhofen,47.8833,11.8333
arnholz,52.15,8.7667
arnim,52.6333,11.95
arnis,54.6333,9.9167
arnoldsgrun,50.4,12.2667
arnoldsweiler,50.8333,6.5
arnried,47.8,11.25
arnsberg,51.3833,8.0833
arnschwang,49.2667,12.8167
arnsdorf,51.4333,13.8667
arnsfeld,50.5833,13.1167
arnsgereuth,50.6167,11.3167
arnshain,50.8,9.15
arnshofen,50.55,7.8667
arnstadt,50.8333,10.95
arnstedt,51.6833,11.5
arnstein,49.9797,9.9669
arnstorf,48.5667,12.8167
arnum,52.3,9.7333
arolsen,51.3667,9.0167
arpke,52.3833,10.1167
arpsdorf,54.0333,9.8667
arpshagen,53.9667,11.15
arrach,49.0833,12.4833
arras,51.0667,12.9
arrenkamp,52.4333,8.4167
arresting,48.8667,11.7333
arsten,53.0333,8.85
artelshofen,49.5667,11.5
artern,51.3667,11.3
arth,48.5833,12.0667
artlenburg,53.3667,10.5
arup,51.7667,7.65
arzbach,50.3667,7.75
arzberg,50.0667,12.2
arzberg adelwitz,51.5167,13.1333
arzell,50.7667,9.7667
arzfeld,50.0833,6.2667
arzheim,49.1936,8.0703
arzla,48.1,11.15
arzthofen,49.25,11.5333
arzting,48.8833,12.9833
asbach,48.65,10.2167
asbach baumenheim,48.6833,10.8167
asbacherhutte,49.8,7.2833
asbeck,51.35,7.3
asch,48.4333,9.8167
ascha,49,12.6333
aschach,47.55,9.6833
aschaffenburg,49.9739,9.1492
aschara,51.05,10.6833
aschau,54.45,9.9333
aschau am inn,48.2,12.35
aschau im chiemgau,47.7667,12.3167
aschbach,49.5767,8.8483
aschberg,50.3833,12.5167
aschbuch,48.9833,11.4833
asche,51.6167,9.8
ascheberg,51.7833,7.6167
ascheffel,54.4333,9.7
ascheid,50.6333,7.5833
aschelsried,48.6667,11.4167
aschendorf,52.1,8.15
aschenhausen,50.6,10.2
aschenhutte,51.6833,10.3
aschenstedt,52.9333,8.4333
aschering,47.9667,11.25
ascherode,50.9,9.2167
aschersleben,51.75,11.4667
aschfeld,50,9.8333
aschhausen,49.3714,9.5406
aschheim,48.1667,11.7167
ascholding,47.8878,11.5047
asel,52.1833,9.9667
asemissen,51.9833,8.6667
asenbaum,48.7167,13.4333
asendorf,52.1,9.0167
ashausen,53.3667,10.1333
asleben,51.4833,11.6833
asmissen,52.0667,9.1
aspach,48.9667,9.4
aspe,52.0667,8.7167
aspenstedt,51.9333,10.95
asperg,48.9,9.1167
aspern,53.8,9.75
aspertshofen,49.55,11.4333
aspisheim,49.9,7.9833
assamstadt,49.4281,9.6861
assau,51.9833,12.7
assel,53.6833,9.4333
asselfingen,48.5333,10.2
asselheim,49.5794,8.1628
asseln,51.5333,7.5833
assen,51.7,8.0833
assenheim,49.4236,8.2858
asslar,50.6,8.4667
assling,48,12
assmannshardt,48.15,9.7333
assmannshausen,50,7.8667
ast,47.9,11.85
asten,47.7,12.1167
asterode,50.85,9.3833
astert,50.7,7.7833
astfeld,51.9333,10.3833
astheim,49.9356,8.3817
asweiler,49.55,7.2
ateritz,51.7333,12.6333
athenstedt,51.9333,10.9167
attaching,48.3833,11.7667
atteln,51.6,8.8
attendorn,51.1167,7.9
attenham,47.9333,11.55
attenhausen,50.3,7.8833
attenhofen,48.2167,9.4833
attenkirchen,48.5,11.7667
attenweiler,48.1333,9.7
attenzell,48.9,11.3833
atting,48.35,12.1167
attlesee,47.6333,10.5333
atzbach,50.5833,8.5833
atzelgift,50.7,7.8333
atzenbach,47.7167,7.8667
atzenberg,47.9667,9.6333
atzendorf,51.3333,11.95
atzenhain,50.6333,8.9833
atzenhausen,51.4167,9.8167
atzerode,50.7667,10.45
atzhausen,49.7833,10.2833
atzing,47.85,12.3167
atzmannsberg,48.6,12.6333
atzmannsricht,49.55,11.8833
au,47.75,9.95
au am aign,48.6667,11.5167
au am inn,48.1667,12.3333
au am rhein,48.95,8.2333
au bei ambs,48.55,11.75
au bei bad aibling,47.8,11.9833
au in der hallertau,48.55,11.75
aub,49.55,10.0667
aubach,48.5167,13.3667
aubing,48.1667,11.4167
aubstadt,50.3333,10.4333
auburg,49,12.3167
audenhain,51.5,12.85
audenschmiede,50.4167,8.4
auderath,50.1833,7
audigast,51.1667,12.3
audorf,54.3167,9.7167
aue,50.5833,12.7
auel,50.7667,7.35
auen,52.8333,7.7333
auendorf,48.6167,9.6833
auenheim,50.9833,6.65
auenstein,49.0594,9.2789
auenwald,48.9343,9.5252
auenzell,49.0167,12.55
auer,51.1667,13.6333
auerbach,50.5167,12.4
auerbach in der oberpfalz,49.6925,11.6325
auerberg,47.7333,10.7333
auerhammer,50.5833,12.7
auernheim,48.7333,10.3
auernhofen,49.5333,10.1
auerschutz,51.2167,13.1333
auersmacher,49.1333,7.05
auerstedt,51.1,11.5833
auerswalde,50.9,12.9167
auetal,52.2388,9.2516
auf dem berge,50.6667,12.55
auf dem schilde,53.0167,8.1333
auf der hohe,53.05,8.4667
auf der horst,52.3667,8.6667
aufen,47.9667,8.4667
aufenau,50.25,9.3167
aufham,47.7833,12.3333
aufhausen,47.95,11.3667
aufheim,48.3333,10.0667
aufhofen,48.1667,9.7833
aufkirch,47.9,10.75
aufkirchen,47.95,11.3667
auf'm buch,47.6667,10.3833
aufroth,48.9667,12.55
aufsess,49.9,11.2167
aug,47.8167,11.5167
augenthal,48.2667,12.9
auggen,47.7863,7.5977
auggenbach,49.0833,12.7167
augsberg,48.3667,10.8833
augsburg,48.3667,10.8833
augsdorf,51.6,11.5667
augsfeld,50.0167,10.55
augustdorf,51.9,8.7333
augustendorf,52.9167,7.8833
augustenhof,53.6167,11.5833
augustenkoog,54.3833,8.7333
augustfehn,53.2167,7.7667
augusthausen,53.4167,8.3
augusthof,53.3,12.6
augustusburg,50.8167,13.1
augzin,53.5667,11.9667
auhagen,52.4,9.3
auhausen,48.7833,11.7
auhof,47.8333,9.4333
auhofe,48.7833,11.5833
auing,48.0667,11.2
auingen,48.4167,9.5167
aukam,48.45,12.2667
aukofen,48.9333,12.25
aukrug,54.0833,9.7833
auleben,51.4333,10.9333
aulendorf,47.95,9.6333
aulfingen,47.8833,8.6667
aulhausen,50,7.9
aull,50.4,8
aulosen,52.9833,11.5833
aulzhausen,48.4333,10.9667
auma,50.7,11.9333
aumenau,50.4,8.25
aumuhle,53.5333,10.3167
aumund,53.1833,8.6333
aunkirchen,48.6,13.1333
aupitz,51.1667,12.0333
aura,50.1667,10
aura an der saale,50.1667,10
aura im sinngrund,50.1833,9.5667
aurach,47.7,11.9333
aurachtal,49.5763,10.8214
aurau,49.25,11.0167
aurich,53.4667,7.4833
aurith,52.25,14.6833
aurlfing,48.3333,12
ausacker,54.7333,9.5667
ausackerbruck,54.7167,9.6
ausackerholz,54.7167,9.5833
ausbach,50.8333,9.9167
ausbau,52.5167,12.4
ausbuttel,52.4333,10.5333
auschkowitz,51.2167,14.25
ausleben,52.0833,11.1167
aussen,49.45,6.85
ausserer pfitzhof,49.2833,9.45
ausserirlach,48.9167,12.8667
aussernzell,48.7167,13.2
austen,52.8,8.4833
autenhausen,50.2333,10.7833
autenried,47.8167,10.45
autenzell,48.5167,11.2667
authausen,51.6,12.6833
auufer,53.9167,9.6833
auw,49.9,6.6167
auweiler,51,6.85
ave,53.5167,13.0167
avendorf,53.3833,10.45
aventoft,54.9,8.8167
avenwedde,51.9167,8.4833
averbeck,52.1,7.1333
averdung,51.8167,7.7833
averesch,52.1,6.9667
averfehrden,52.1,7.9833
averlak,53.95,9.1833
axelshof,53.7667,12.8667
axien,51.7,12.8833
axstedt,53.35,8.7667
axtbrunn,48.55,11
ayenwolde,53.35,7.45
aying,47.9667,11.7833
ayl,49.6333,6.55
aystetten,48.4,10.7667
azenweiler,47.8,9.4167
azmannsdorf,50.9833,11.1
baabe,54.35,13.7
baach,48.2333,9.4833
baad,49.6167,11.1333
baak,51.4167,7.1667
baal,51.05,6.2833
baalberge,51.7667,11.8
baalborn,49.5,7.8333
baar,48.6667,11.4833
baar ebenhausen,48.6667,11.45
baars,52.75,11.2167
baasdorf,51.7,11.9833
baasem,50.3667,6.5
babben,51.7167,13.7833
babelitz,54.0167,12.7
babelsberg,52.4,13.1
baben,52.7,11.8833
babenhausen,49.9667,8.9578
babenried,48.1667,11.1667
babensham,48.0833,12.2667
babetsberg,49.0833,11.9167
babilon,49.9333,11.8833
babow,51.8,14.15
babst,53.8833,11.75
babstadt,49.2431,9.0581
bach,50.7667,7.4
bach an der donau,49.0167,12.3
bacharach,50.0667,7.7667
bachem,50.9,6.8167
bachen,47.7833,9.3333
bachenau,49.2811,9.1914
bachenberg,50.7167,7.65
bachenhausen,48.3667,11.5333
bachern,48.0667,11.1667
bachetsfeld,49.4833,11.65
bachfeld,50.4167,10.9833
bachhagel,48.6333,10.3167
bachhaupten,47.9833,9.4333
bachhausen,47.9667,11.3833
bachheim,47.85,8.4
bachingen,48.55,10.3333
bachl,48.8167,11.95
bachlingen,49.2458,9.8481
bachmehring,48.05,12.2333
bachra,51.2,11.3667
bachrain,50.5333,9.7
bachstedt,51.0667,11.1833
back,53.1667,11.9167
backer,47.6,11.4667
backhaus,50.8167,7.8833
backleben,51.2,11.2833
backnang,48.95,9.4333
bad,52.05,10.3667
bad abbach,48.9333,12.05
bad aibling,47.8667,12
bad alexandersbad,50.0167,12.0167
bad arolsen,51.3798,9.0145
bad bellingen,47.7319,7.5561
bad bentheim,52.3167,7.1667
bad bergzabern,49.11,7.99
bad berka,50.9,11.2833
bad berleburg,51.05,8.4
bad berneck,50.05,11.6667
bad berneck im fichtelgebirge,50.05,11.6667
bad bertrich,50.0667,7.0333
bad bevensen,53.0833,10.5833
bad bibra,51.2,11.5833
bad blankenburg,50.6833,11.2667
bad bocklet,50.2667,10.0833
bad bodendorf,50.55,7.2167
bad boll,48.65,9.6
bad brambach,50.2167,12.3167
bad bramstedt,53.9167,9.8833
bad breisig,50.5167,7.2667
bad bruckenau,50.3,9.8
bad buchau,48.0667,9.6167
bad camberg,50.3,8.2667
bad cannstatt,48.8,9.2
bad colberg,50.2667,10.8
bad ditzenbach,48.5833,9.7
bad doberan,54.1,11.9
bad driburg,51.7333,9.0167
bad duben,51.6,12.5833
bad durkheim,49.4686,8.1664
bad durrenberg,51.3,12.0667
bad durrheim,48.0167,8.5333
bad eilsen,52.25,9.1
bad elster,50.2833,12.2333
bad ems,50.3333,7.7167
bad endbach,50.75,8.5
bad endorf,47.9,12.3
bad essen,52.3167,8.3333
bad faulenbach,47.5667,10.6833
bad feilnbach,47.7833,12.0167
bad frankenhausen,51.35,11.1
bad freienwalde,52.7833,14.0333
bad friedrichshall,49.2292,9.2069
bad fussing,48.3667,13.3167
bad gandersheim,51.8667,10.0333
bad godesberg,50.6833,7.15
bad gogging,48.8167,11.7833
bad gottleuba,50.85,13.95
bad griesbach,48.45,8.2333
bad grund,51.8167,10.2333
bad hamm,51.6833,7.8333
bad harzburg,51.8833,10.5667
bad heilbrunn,47.75,11.45
bad herrenalb,48.8,8.4333
bad hersfeld,50.8667,9.7
bad hohenstadt,48.5,13.3167
bad homburg,50.2167,8.6167
bad homburg vor der hohe,50.2167,8.6167
bad honnef am rhein,50.6333,7.2333
bad honningen,50.5167,7.3167
bad iburg,52.15,8.05
bad imnau,48.4,8.7833
bad karlshafen,51.6333,9.45
bad kissingen,50.2,10.0833
bad kleinen,53.7667,11.4667
bad klosterlausnitz,50.9167,11.8667
bad kohlgrub,47.6667,11.05
bad konig,49.7431,9.0086
bad konigshofen,50.3,10.4833
bad konigshofen im grabfeld,50.3008,10.4689
bad kosen,51.1333,11.7167
bad kostritz,50.9333,12.0167
bad kreuznach,49.8333,7.8667
bad krozingen,47.9163,7.7006
bad laasphe,50.9333,8.4
bad laer,52.1,8.0833
bad langensalza,51.1,10.65
bad lauchstadt,51.3833,11.85
bad lausick,51.15,12.6333
bad lauterberg,51.65,10.4667
bad liebenstein,50.8167,10.3667
bad liebenwerda,51.5167,13.4
bad liebenzell,48.7667,8.7333
bad lippspringe,51.7833,8.8167
bad marienberg,50.65,7.95
bad meinberg,51.9,8.9833
bad mergentheim,49.4925,9.7736
bad mingolsheim,49.2208,8.6544
bad munder,52.2,9.4667
bad munder am deister,52.2,9.4667
bad munster,49.8167,7.85
bad munster am stein ebernburg,49.8167,7.85
bad munster ebernburg,49.8167,7.85
bad munstereifel,50.55,6.7667
bad muskau,51.55,14.7167
bad nauheim,50.3667,8.75
bad nenndorf,52.3333,9.3667
bad neuenahr,50.55,7.1333
bad neuenahr ahrweiler,50.55,7.1
bad neustadt,50.3333,10.2167
bad neustadt an der saale,50.3333,10.2167
bad niedernau,48.45,8.9
bad oberdorf,47.5,10.3833
bad oeyhausen,52.2,8.8
bad oeynhausen,52.2,8.8
bad oldesloe,53.8167,10.3833
bad orb,50.2167,9.35
bad peterstal,48.4333,8.2
bad peterstal griesbach,48.4333,8.2167
bad pyrmont,51.9833,9.25
bad rappenau,49.2406,9.1025
bad rehburg,52.4333,9.2167
bad reichenhall,47.7333,12.8833
bad rippoldsau,48.4333,8.3167
bad rippoldsau schapbach,48.4,8.3333
bad rothenfelde,52.1167,8.1667
bad saarow,52.2833,14.0667
bad saarow pieskow,52.2833,14.0667
bad sachsa,51.6,10.55
bad sackingen,47.55,7.95
bad salzdetfurth,52.05,10
bad salzhausen,50.4167,8.9833
bad salzig,50.2,7.6333
bad salzschlirf,50.6167,9.5
bad salzuflen,52.0833,8.7667
bad salzungen,50.8167,10.2333
bad sassendorf,51.5833,8.1667
bad schachen,47.55,9.6667
bad schandau,50.9167,14.15
bad schmiedeberg,51.6833,12.7333
bad schussenried,48.0167,9.65
bad schwalbach,50.1333,8.0667
bad schwartau,53.9167,10.7
bad segeberg,53.9333,10.3167
bad soden,50.1333,8.5
bad soden am taunus,50.1333,8.5
bad soden salmunster,50.2833,9.3667
bad sooden,51.2833,9.9833
bad sooden allendorf,51.2833,9.9833
bad steben,50.3667,11.65
bad suderode,51.7333,11.1167
bad sulza,51.0833,11.6
bad sulzburg,47.8167,7.75
bad sulze,54.1333,12.6667
bad teinach,48.7,8.6833
bad teinach zavelstein,48.7,8.6833
bad tennstedt,51.15,10.8333
bad toelz,47.7667,11.5667
bad tolz,47.7667,11.5667
bad uberkingen,48.6,9.8
bad urach,48.5,9.4
bad vilbel,50.1833,8.75
bad waldliesborn,51.7,8.3333
bad waldsee,47.9167,9.7667
bad weilbach,50.0333,8.4333
bad westernkotten,51.6333,8.3667
bad wiessee,47.7167,11.7167
bad wildbad,48.75,8.55
bad wildbad im schwarzwald,48.75,8.55
bad wildungen,51.1167,9.1167
bad wilsnack,52.95,11.95
bad wimpfen,49.2272,9.1597
bad windsheim,49.5,10.4167
bad worishofen,48.0167,10.6
bad wurzach,47.9,9.9
bad zwischenahn,53.1833,8
badbergen,52.6333,7.9833
baddeckenstedt,52.0833,10.2333
badeborn,51.7667,11.2333
badegow,53.5667,11.7833
badekow,53.4167,10.7667
badel,52.7333,11.3167
badelachen,50.8333,10.0333
badeleben,52.15,11.1333
badem,50,6.6167
bademuhlen,53.3,9.2167
baden,48.75,8.25
baden baden,48.75,8.25
badendiek,53.7333,12.15
badendorf,53.8667,10.5667
badenhard,50.1167,7.6333
badenhausen,51.8,10.2167
badenheim,49.8333,7.9667
badenstedt,52.3667,9.6667
badenweiler,47.8052,7.6784
baderitz,51.1667,13.1667
badersen,51.15,13.2667
badersfeld,48.25,11.5333
badersleben,51.9833,10.9
badetz,51.9333,11.9833
badewitz,52.0167,12.15
badingen,52.6167,11.65
badisch rheinfelden,47.5667,7.8
badorf,50.8,6.8833
badow,53.6167,11.1167
badra,51.4,10.9667
badresch,53.55,13.6167
badrina,51.5333,12.4833
baek,53.1667,11.9167
baerl,51.4833,6.6833
baesweiler,50.9,6.1833
bagband,53.35,7.6
bagenz,51.65,14.4333
bageritz,51.4833,12.1667
bagow,52.5167,12.7167
bahlburg,53.3,10.1833
bahlen,52.6833,8.1333
bahlenhuschen,53.5167,11.6
bahlenrade,53.5,11.9167
bahlingen,48.1206,7.7398
bahlum,52.9167,8.95
bahnbrucken,49.1197,8.7861
bahnhof hirzenhain,50.7833,8.4
bahnhof jerxheim,52.0667,10.8833
bahnhof reken,51.8,7.0333
bahnitz,52.5,12.4
bahnsdorf,51.5833,14.1167
bahra,50.8667,14
bahratal,50.8333,13.9667
bahrdorf,52.3833,11
bahren,50.65,11.6333
bahrenborstel,52.5667,8.8
bahrendorf,52,11.55
bahrenfeld,53.5667,9.9167
bahrenfleth,53.8833,9.4333
bahrenhof,53.8833,10.3833
bahrensdorf,54.2833,10.7333
bahretal,50.8875,13.9
bahro,52.05,14.5667
baien,47.8333,9.55
baienbach,47.85,9.5667
baienfurt,47.8167,9.65
baierbach,49.1717,9.5286
baierbrunn,48.0167,11.4833
baiereck,48.75,9.5167
baiern,47.95,11.9
baiernrain,47.9,11.6167
baiersbronn,48.5,8.3833
baiersdorf,49.66,11.0303
baiershofen,48.4667,10.55
baiertal,49.3025,8.7369
baierthal,49.6833,9.75
baierweg,49.0333,12.8667
baindlkirch,48.2833,11.1
baindt,47.6333,9.7333
bairawies,47.8333,11.5333
bairoda,50.8,10.3667
baisingen,48.5,8.7833
baisweil,47.95,10.55
baitz,52.1667,12.6833
bak,53.7167,10.7833
bake,53.1667,8.3833
bakede,52.2167,9.4
bakendorf,53.5,11.2333
bakenhus,52.9167,8.2333
bakum,52.2167,8.3167
balau,53.6167,10.6167
baldereck,54.5667,13.5167
baldern,48.9,10.3167
balderschwang,47.4667,10.1
baldersheim,49.55,10.0333
baldham,48.1,11.8
baldingen,48.8667,10.4833
baldringen,49.6167,6.6833
balduinstein,50.35,7.9667
balesfeld,50.1,6.5333
balge,52.7167,9.1667
balgheim,48.0667,8.7667
balgstadt,51.2167,11.7333
balhorn,51.2667,9.2333
balingen,48.2833,8.85
balje,53.8333,9.1333
balkenkoppel,54.2667,12.7167
balkhausen,50.85,6.75
balkum,52.4667,7.9
ball,50.9833,7.1833
ballendorf,48.55,10.0833
ballenhausen,51.45,9.95
ballenstedt,51.7167,11.2333
ballersbach,50.6833,8.3667
ballersdorf,48.7,11.1667
ballerstedt,52.7333,11.7167
ballhausen,48.65,10.3
ballin,53.45,13.4333
ballingshausen,50.1667,10.3333
ballmannshof,49.2667,10.7
ballmertshofen,48.6833,10.3667
ballrechten,47.8601,7.7013
ballstadt,51.0333,10.7167
ballstedt,51.05,11.2167
ballweiler,49.2,7.2167
ballwitz,53.45,13.25
balow,53.2667,11.7167
balsbach,49.4783,9.1761
baltersweil,47.6333,8.5167
baltersweiler,49.5,7.1667
baltmannsweiler,48.7333,9.45
baltringen,48.1667,9.8667
baltrum,53.7333,7.3667
balve,51.3333,7.8667
balzhausen,48.2333,10.5
balzheim,48.1833,10.0833
balzhofen,48.7167,8.1
balzholz,48.5667,9.3833
bamberg,49.8667,10.8667
bambergen,47.7833,9.2
bamenohl,51.1667,7.9833
bamlach,47.7171,7.5503
bamling,48.7167,12.8833
bamme,52.5833,12.4333
bammental,49.3561,8.7794
bammersdorf,49.2333,10.6833
bandau,52.6667,11.1
bandekow,53.3333,11.1167
bandelin,53.9667,13.3833
bandelow,53.4167,13.85
bandelstorf,54.0333,12.25
bandenitz,53.4833,11.2833
bandorf,50.6,7.2
bandow,53.9333,12.0167
banfe,50.9,8.85
bangstede,53.4167,7.4
bank,50.8333,6.05
bankewitz,53.0333,10.8
bankholzen,47.7167,8.9333
bann,49.3833,7.6167
bannberscheid,50.4667,7.8333
bannemin,54.0667,13.85
bannesdorf,54.4667,11.2167
bannetze,52.6833,9.8
bannewitz,51,13.7333
bannholz,47.6667,8.1667
bansin,53.9667,14.1333
bansin dorf,53.9667,14.1333
bansleben,52.1667,10.75
banteln,52.0667,9.75
bantikow,52.9333,12.45
bantin,53.55,10.9667
bantorf,52.1333,9.5167
banzendorf,53.0167,13
banzenmuhle,49.3333,10.4
banzin,53.4167,10.9167
banzkow,53.5333,11.5167
barbecke,52.1833,10.2833
barbelroth,49.0989,8.0692
barbing,49,12.2
barbis,51.6167,10.4333
barby,51.9667,11.8833
barchel,53.4667,9.0333
barchfeld,50.8,10.3
bardenbach,49.5,6.8667
bardenberg,50.85,6.1167
bardenfleth,53.1667,8.5667
barderup,54.7167,9.3833
barderupfeld,54.7,9.3833
bardewisch,53.1333,8.5833
bardowick,53.3,10.3833
bardowiek,53.8667,10.8333
barenbach,49.75,7.45
barenbronn,49.1,9.45
barenbruck,51.8167,14.4833
barenburg,52.6167,8.8
barenburg,50.8,13.7167
barendorf,53.2333,10.5167
barenfels,50.8,13.6667
barenklau,51.9333,14.5667
barenklause,50.9667,13.7833
barenstein,50.5,13.0333
barenthal,48.0667,8.9333
barenthin,52.9333,12.2333
barenthoren,52,12.2833
barenwalde,50.5667,12.5333
barfelde,52.1,9.8167
barg,54.7333,9.6833
bargau,48.7833,9.8833
bargdorf,53.1167,10.5
bargen,54.2833,9.05
bargensdorf,53.5167,13.2833
bargenstedt,54.1,9.15
bargeshagen,54.1167,11.9833
bargfeld,53.7667,10.2
bargfeld stegen,53.7667,10.2
barghorn,53.2333,8.25
barghorn nord,53.3,8.3167
barghorst,54.0167,10.5667
bargischow,53.8333,13.75
bargstall,54.2667,9.4667
bargstedt,54.1667,9.7667
bargteheide,53.7333,10.2667
bargum,54.7,8.95
barhauser,51.1,14.5333
barhoft,54.4333,13.0333
barienrode,52.1167,9.95
barig selbenhausen,50.5167,8.2
barjenbruch,52.8833,8.5333
bark,53.9167,10.1833
barkau,54.0833,10.6333
barkelsby,54.5,9.8333
barkenholm,54.2333,9.1833
barkhausen,51.5167,8.5667
barkhorn,54.2167,9.6667
barkhorst,53.75,10.3833
barkow,53.35,11.75
barlage,52.4,8.3667
barleben,52.2,11.6333
barlissen,51.4333,9.8167
barlo,51.8833,6.6667
barlohe,54.15,9.6333
barlt,54.0167,9.05
barmbek,53.5833,10.05
barme,52.8333,9.2
barmen,50.95,6.3
barmissen,54.2,10.1833
barmke,52.2667,10.95
barmstedt,53.7833,9.7667
barnau,49.8167,12.4333
barneberg,52.1167,11.0667
barnekow,53.8667,11.3667
barnewitz,52.5667,12.6167
barnfels,49.7167,11.35
barngschwendt,47.75,12.6167
barnhausen,52.1,8.3333
barnhof,49.6167,11.5667
barnhohe,49.9,12.0667
barnin,53.6,11.7
barnitz,53.8,10.5
barnsdorf,51.1667,13.7333
barnsen,52.9833,10.45
barnstadt,51.35,11.65
barnstedt,52.8667,9.2833
barnstorf,52.7167,8.5
barnten,52.2,9.8167
barntrup,51.9833,9.1167
barnwinkel,49.75,11.9
barop,51.4833,7.4167
barrien,52.6667,8.7167
barsbach,49.5,8.7667
barsbek,54.4,10.3167
barsbuttel,53.5667,10.1667
barschlute,53.1667,8.5833
barsikow,52.85,12.5333
barsinghausen,52.3,9.45
barskamp,53.25,10.7833
barssel,53.1667,7.7333
barstadt,50.1,8.0667
bartelsdorf,53.4833,10.5333
bartelshagen,53.8167,12.4667
bartenbach,48.7167,9.6667
bartenshagen,54.1,11.9667
bartenshagen parkentin,54.0833,11.9667
bartensleben,52.2333,11.1333
bartenstein,49.3564,9.8878
barterode,51.55,9.7833
barth,54.3667,12.7333
barthelmesaurach,49.2771,10.9357
bartholoma,48.75,9.9833
bartow,53.8167,13.35
barum,52.1167,10.4333
baruth,52.05,13.5
barver,52.6167,8.6
barwalde,51.8333,13.2667
barwedel,52.5167,10.7833
barweiler,49.7333,7.6
barwinkel,52.6167,14.2667
barz,53.6833,12.5
barzig,51.6,13.95
basberg,50.3,6.6
basch,49.75,7
baschutz,51.1833,14.5
basdahl,53.45,9
basdorf,52.7167,13.4333
basedow,53.3333,13.8
basel,51.75,8.2167
basepohl,53.7333,12.9167
bass,53.95,10.0167
basse,52.55,9.5167
bassen,53.05,9.0833
bassendorf,54.0333,12.7833
bassenfleth,53.6167,9.5333
bassenheim,50.3667,7.4667
bassow,53.6167,13.45
bassum,52.85,8.7333
basta,52.6,14.4
bastheim,50.4,10.2
basthorst,53.5833,10.4667
bastorf,54.1333,11.7
basweiler,50.9,6.1833
batenhorst,51.8,8.3
batschenhof,48.9,9.8667
battaune,51.5333,12.7333
battenberg,51.0167,8.65
battenfeld,51.0333,8.6667
battenhausen,51.0333,9.0167
battgendorf,51.2,11.2667
battin,51.7667,12.9
battinsthal,53.3333,14.25
battweiler,49.2833,7.4667
batzenhausle,48.0833,7.95
batzenhofen,48.4333,10.8167
batzhausen,49.1833,11.6
batzlow,52.6333,14.1167
bauda,51.3333,13.4667
baudenbach,49.6167,10.5333
bauer,53.9833,13.8
bauerbach,50.5,10.4
bauernheim,50.3333,8.8
bauersbach,49.2003,9.7056
bauerschaft lengerich,52.5667,7.5333
bauersdorf,54.2667,10.4833
bauhaus,50.9833,9.9333
bauhof,47.9167,9.4667
bauland,53.6667,9.6333
bauler,49.9667,6.2
baum,51.1167,6.35
baumbach,50.45,7.7167
baumberg,51.1167,6.9
baumenheim,48.6833,10.8167
baumerlenbach,49.2386,9.4394
baumersroda,51.2667,11.7667
baumgarten,52.9833,13.0833
baumgartl,48.1,10.3667
baumhof,49.3667,12.35
baumholder,49.6167,7.3333
baumschulenweg,52.4667,13.4833
baunach,49.9833,10.85
baunatal,51.25,9.4167
baur,51.2333,7.1833
bauscheid,50.6,7.5667
bauschheim,49.9597,8.3767
bauschlott,48.9667,8.7167
bausendorf,50.0167,7
baustarring,48.4,12.05
baustert,49.9833,6.3833
baustetten,48.2,9.8833
bautzen,51.1833,14.4333
bavaria,49,11.5
baven,52.85,10.0833
bavendorf,47.7667,9.5333
bawinkel,52.6,7.4
bayenthal,50.9167,6.9833
bayerbach,48.4167,13.15
bayerdilling,48.65,10.95
bayerfeld,49.6833,7.8
bayerfeld steckweiler,49.6833,7.8
bayerisch eisenstein,49.1167,13.2
bayerisch gmain,47.7167,12.9
bayern,47.795,12.5338
bayersoien,47.6833,11
bayersried,47.9167,10.4667
bayerstetten,47.6167,10.4833
bayreuth,49.9481,11.5783
bayrischzell,47.6667,12.0167
beaumarais,49.3,6.7167
beauregard,52.7333,14.2167
bebelsheim,49.1667,7.1667
bebendorf,51.2167,10.15
bebensee,53.8833,10.3
beber,52.2333,9.3833
beberstedt,51.3,10.4
bebertal zwei,52.2333,11.35
bebitz,51.7167,11.75
bebra,50.9667,9.8
becheln,50.3,7.7167
bechelsdorf,53.8,10.8833
bechen,51.0333,7.2
bechenheim,49.7286,8.0033
becherbach,49.65,7.6833
bechhofen,49.15,10.55
bechingen,48.2,9.5
bechlingen,50.6333,8.45
bechstedt,50.6667,11.1667
bechstedtstrass,50.95,11.2
bechstedt wagd,50.9,11.0667
bechtbuettel,52.3333,10.5333
bechterdissen,52,8.6667
bechtersbohl,47.6,8.35
bechtheim,49.7278,8.2922
bechtolsheim,49.8042,8.1939
bechtsbuttel,52.3333,10.5333
bechtsrieth,49.65,12.2167
beck,51.75,7.0333
beckdorf,53.4167,9.6167
becke,51.0333,7.5833
beckedorf,52.35,9.3167
beckeln,52.8667,8.5833
becken,47.7667,9.8167
beckendorf,53.4333,10.8
beckentin,53.2333,11.5833
beckerskirchhof,50.8333,11.4667
beckerwitz,53.9333,11.3333
beckhausen,51.5667,7.0333
beckingen,49.4,6.7
becklingen,52.8667,9.9
beckrath,51.1167,6.3833
beckstedt,52.8333,8.5
beckstein,49.5464,9.7053
beckstetten,47.9833,10.6667
beckum,51.75,8.0333
bedburdyck,51.1167,6.5667
bedburg,51,6.5833
beddelhausen,51,8.5
beddingen,52.1833,10.4333
bedekaspel,53.45,7.3167
bederkesa,53.6333,8.85
bedernau,48.1167,10.4
bederwitz,51.1,14.4667
bedesbach,49.5667,7.4667
bedheim,50.4,10.65
bedra,51.2833,11.8833
beeck,50.9833,6.1833
beedeln,51.0167,12.8167
beeden,49.3,7.3167
beedenbostel,52.65,10.25
beedenkirchen,49.7347,8.7072
beek,51.2167,6.1667
beelen,51.9333,8.1333
beelitz,52.2333,12.9667
beelitz heilstatten,52.25,12.9167
beendorf,52.2333,11.0833
beenhausen,50.9667,9.6333
beenz,53.25,13.7333
beerbach,49.2167,10.9
beerfelde,52.4333,14.05
beerfelden,49.5669,8.9747
beerfurth,49.7208,8.8672
beerwalde,50.8833,12.2333
beese,52.7333,11.5167
beesedau,51.7333,11.7
beesen,51.85,8
beesenlaublingen,51.7167,11.7
beesenstedt,51.5667,11.7333
beesewege,52.65,11.6167
beeskow,52.1667,14.25
beesten,52.4333,7.5
beestland,53.9333,12.9333
beetz,52.8167,13.0167
beetzendorf,52.7,11.1
beetzsee,52.4833,12.5611
beetzseeheide,52.4917,12.6125
beffendorf,48.2833,8.55
bega,52,9.0667
begau,50.85,6.2167
beggerow,53.8333,13.05
beham,48.3833,13.3833
behl,54.1833,10.4667
behla,47.9,8.5167
behlendorf,53.7,10.6667
behling,51.2833,7.4167
behlingen,52.7,9.1667
behnkendorf,54.2,13.1333
behnkenhagen,54.0833,13.1667
behnsdorf,52.3167,11.15
behren,52.8,10.5
behrend,52.85,11.75
behrendorf,54.5667,9.2167
behrenhoff,54.0167,13.4
behren lubchin,54.0333,12.6667
behrensdorf,52.1833,14.05
behrenshagen,54.25,12.5333
behringen,53.1167,9.9667
behringersdorf,49.4833,11.2
behringersmuhle,49.7833,11.3333
behrungen,50.4167,10.4167
bei der walke,48.35,8.2167
beichlingen,51.2333,11.25
beidendorf,53.8333,11.3833
beidenfleth,53.8833,9.4
beidersee,51.5667,11.9
beidl,49.8,12.2667
beienheim,50.3667,8.8167
beienrode,51.4667,10.1167
beierfeld,50.5667,12.8
beiersdorf,51.55,13.3
beierstedt,52.0833,10.8667
beiert,50.8333,7.3667
beiertheim,49,8.3667
beifang,51.6833,7.4667
beihingen,48.5333,8.6333
beilingen,49.95,6.6667
beilngries,49.0353,11.4733
beilrode,51.5667,13.0667
beilstein,49.0394,9.315
beim suderbusch,53.7167,9.0167
beimerstetten,48.4833,9.9833
beimoor,53.6833,10.2667
beindersheim,49.5606,8.3194
beinerstadt,50.4667,10.6
beinhausen,50.2667,6.8833
beiningen,48.3833,9.8
beinstein,48.8167,9.35
beiseforth,51.0833,9.55
bekdorf,53.9333,9.4167
bekenreihe,53.7833,9.4167
bekmunde,53.9333,9.45
bekond,49.85,6.8
bekum,52.2667,10.0833
belau,54.1,10.2667
beldorf,54.1333,9.35
belecke,51.4833,8.3333
belfort,52.5167,11.0167
belg,49.9833,7.3
belgern,51.2,14.5667
belgershain,51.2333,12.55
belgweiler,49.95,7.4833
belicke,52.3833,12.25
belin,51.9,14.1833
belitz,53,11.0667
bell,50.0667,7.4167
bellamont,48,9.9167
belle,51.9,9.05
belleben,51.6667,11.6333
bellenberg,51.8667,9
beller,51.7,9.2333
bellersdorf,50.6667,8.4167
bellersen,51.7833,9.1833
bellershausen,49.3,10.2167
bellersheim,50.45,8.8333
bellevue,51.6833,8.7333
bellheim,49.1983,8.2794
bellin,54.2833,10.4667
belling,53.55,13.9667
bellingen,50.6,7.9
bellinghausen,50.7,7.25
bellings,50.3167,9.5
bellnhausen,50.7,8.7167
bellstedt,51.2667,10.7833
bellwitz,51.1333,14.7
belm,52.3,8.1333
belmbrach,49.2333,11.1
below,53.2667,12.4667
belrieth,50.5333,10.5
belsch,53.3333,11.2
belsdorf,52.2,11.15
belsen,48.4,9.0333
belsenberg,49.3056,9.6858
beltershain,50.6167,8.9333
beltershausen,50.75,8.8
beltersrot,49.1775,9.6792
beltheim,50.1,7.45
beltinghoven,51.2,6.3833
belum,53.8167,9
belzhag,49.2197,9.6664
belzheim,48.9667,10.5333
belzig,52.1333,12.6
bemerode,52.35,9.8333
bempflingen,48.5667,9.2667
benckendorf,53.9167,10.95
bendeleben,51.3667,11
bendelin,52.9167,12.1667
bendestorf,53.35,9.9667
bendfeld,54.3667,10.4167
bendhof,53.7,11.1833
bendingbostel,52.95,9.4167
bendorf,50.4333,7.5667
bendorf sayn,50.4333,7.5833
benediktbeuern,47.7,11.4
benefeld,52.8833,9.6667
bengel,50.0167,7.0667
bengen,50.5667,7.1333
bengendorf,50.8833,9.9667
benhausen,51.75,8.8167
beningafehn,53.3333,7.5667
benitz,53.9833,12.1
benk,48.4667,12.9333
benkeloh,53.1667,9.6
benken,52.1667,12.4667
benkendorf,51.4333,11.9167
bennau,50.6667,7.3833
benndorf,51.0667,12.5333
benneckenbeck,52.0833,11.5667
benneckenstein,51.6667,10.7167
bennemuhlen,52.5667,9.7167
bennert,50.7,7.2333
bennewitz,51.1167,12.2667
bennhausen,49.6167,7.9833
benniehausen,51.4833,10.05
bennigsen,52.2333,9.6667
bennin,53.45,10.8833
benning,47.9333,12.2
benningen,48.95,9.25
benningen am neckar,48.95,9.25
benninghausen,51.0667,7.4667
bennoberg,48.15,12.55
bennstedt,51.4833,11.8333
bennungen,51.45,11.1167
benolpe,51.0167,7.7333
benrath,51.1667,6.8667
bensberg,50.9667,7.1667
bensdorf,52.4167,12.3333
bensen,52.1833,9.3333
bensersiel,53.6833,7.5833
benshausen,50.65,10.6
bensheim,49.6803,8.6161
benstaben,53.8167,10.4667
benstorf,52.1,9.65
benteler,51.75,8.3333
benterode,51.35,9.6333
bentfeld,51.7333,8.6333
bentfurt,53.8667,10.0333
benthe,52.3333,9.6333
bentheim,52.3,7.1667
benthen,53.5167,12.0167
benthullen,53.05,8.1
bentlage,52.2833,7.4167
bentorf,52.1333,8.9167
bentwisch,53.05,11.7333
bentzin,53.95,13.2833
benz,54.2167,10.6333
benzin,53.4333,12.0833
benzingen,48.1667,9.15
benzingerode,51.8333,10.8667
benzweiler,50.0167,7.6
beppen,52.9333,9.0667
beppenfield,50.0833,6.7667
beratzhausen,49.0967,11.8083
berau,47.7,8.25
berbersdorf,51.0167,13.1833
berbisdorf,50.7667,12.95
berching,49.1044,11.4422
berchtesgaden,47.6333,13
bereborn,50.2833,6.9667
berel,52.1667,10.2167
berenbach,50.2333,6.95
berenberg,47.9,9.0333
berenbostel,52.45,9.6167
berenbrock,51.6,8.2833
berenbusch,52.3,9
berend,54.55,9.5667
berenscheid,51.4667,8.6333
berentelg,52.3333,7.7667
berg,47.9667,11.35
berg am laim,48.1333,11.6333
berg am see,47.9667,11.35
berg im gau,48.6333,11.25
berga,51.7333,13.3833
bergalingen,47.6167,7.95
berganger,47.9833,11.9167
bergatreute,47.85,9.75
bergbau,47.8,11.0167
bergbronn,49.1167,10.1833
berge,51.1667,8.7
bergebersbach,50.8333,8.3167
bergedorf,53.0333,8.4667
bergel,49.45,10.3667
bergen,54.4167,13.4333
bergen auf rugen,54.4167,13.4333
bergen dumme,52.8833,10.9667
bergendorf,48.6167,10.9833
bergen enkheim,50.15,8.75
bergenhausen,50.0167,7.5667
bergenhusen,54.3833,9.3167
bergenweiler,48.5667,10.2667
berger,51.7167,7.5
bergerdamm,52.6667,12.8
bergerhausen,50.8667,6.65
bergerhof,50.9333,7.75
bergern,50.8167,11.45
bergeshovede,52.2667,7.6167
bergewohrden,54.3167,9.2167
bergfeld,49.3464,9.1783
bergfelde,52.6667,13.3167
bergfelden,48.35,8.6833
bergfreiheit,51.05,9.0833
bergfried,49.6833,11.7667
bergfriede,52.45,11.0667
bergfrieden,51.9833,12.35
berggiesshubel,50.8667,13.95
bergham,47.8,11.8667
berghaselbach,48.4833,11.7333
berghaupten,48.4,7.9833
berghausen,50.7,7.3
berghauser,50.3,12.3333
bergheide,51.5667,13.8
bergheim,50.9667,6.65
bergheim an der erft,50.9667,6.65
berghof,49.05,9.7333
berghofen,47.5167,10.3
bergholz,52.1,12.55
bergholz rehbrucke,52.35,13.1
berghulen,48.4667,9.7667
berging,48.2,12.0833
bergisch gladbach,50.9833,7.1333
bergisch neukirchen,51.0833,7.0167
bergisdorf,51.0333,12.1167
bergkamen,51.6333,7.6333
bergkirchen,48.25,11.3667
berglangenbach,49.6,7.25
berglase,54.3333,13.3167
bergle,47.75,9.5667
berglen,48.8667,9.4667
berglern,48.3833,11.9333
bergleshof,50.1667,11.55
berglicht,49.7833,6.9667
bergluch,52.4167,13.8167
bergmatting,48.9667,11.9833
bergnassau scheuern,50.3167,7.8
bergneustadt,51.0333,7.65
bergoschingen,47.6,8.4167
bergrade,53.7,10.5833
bergrath,50.8,6.2667
bergrheinfeld,50,10.1833
bergrothenfels,49.8939,9.5839
bergs,47.8333,10.1
bergshausen,51.2667,9.5
bergsoll,53.3,12.25
bergstedt,53.6667,10.1333
bergstein,50.7,6.4333
bergstetten,48.8,10.8167
bergstrasse,52.4333,7.6
bergsulza,51.0833,11.6333
bergtheim,49.65,10.65
bergtshofen,49.4833,10.2833
bergweiler,49.9667,6.8167
bergwinkel,51.2333,11.6
bergwitz,51.8,12.5833
bergzabern,49.11,7.99
bergzow,52.4,12.05
beringstedt,54.1167,9.5333
berk,50.3833,6.4667
berka,51.6833,10.1167
berkach,50.4333,10.4
berkau,51.9667,12.65
berkel,52.6833,8.9
berkenbruck,52.1333,13.1167
berkenthin,53.7333,10.65
berkheim,48.05,10.0833
berkhof,52.6,9.7333
berkholz,53.05,14.2
berklingen,52.1333,10.7333
berkoth,50.0333,6.3333
berl,51.9,7.7167
berlebeck,51.8833,8.8667
berleberg,47.75,10.4667
berleburg,51.05,8.4
berlichingen,49.3278,9.4883
berlin,52.5167,13.4
berlin wuhlheide,52.4667,13.5667
berlin adlershof,52.45,13.5333
berlin altglienicke,52.4167,13.55
berlin baumschulenweg,52.4667,13.4833
berlin biesdorf,52.5167,13.55
berlin blankenfelde,52.6167,13.3833
berlin buch,52.65,13.5
berlin buchholz,52.6,13.4333
berlinchen,53.2167,12.5833
berlin falkenhorst,52.3833,13.5667
berlin friedrichsfelde,52.5167,13.5167
berlin friedrichshagen,52.45,13.6333
berlin friedrichshain,52.5333,13.4333
berlingen,49.8167,6.95
berlingerode,51.4667,10.2333
berlin grunau,52.4167,13.5833
berlingsen,51.5167,8.1333
berlin hohenschonhausen,52.55,13.5
berlin johannisthal,52.4333,13.5333
berlin karlshorst,52.4833,13.5333
berlin karolinenhof,52.3833,13.6333
berlin karow,52.6167,13.4667
berlin kaulsdorf,52.5,13.5833
berlin kopenick,52.45,13.5667
berlin lichtenberg,52.5167,13.5
berlin mahlsdorf,52.5167,13.6167
berlin malchow,52.5833,13.4833
berlin marzahn,52.55,13.55
berlin muggelheim,52.4167,13.6667
berlin niederschoneweide,52.45,13.5
berlin niederschonhausen,52.5833,13.4
berlin oberschoneweide,52.4667,13.5333
berlin pankow,52.5667,13.4
berlin rahnsdorf,52.4333,13.6833
berlin rosenthal,52.6,13.3833
berlin schmochwitz,52.3833,13.65
berlin treptow,52.4833,13.45
berlin wartenberg,52.5667,13.5167
berlin wilhelmsruh,52.5833,13.3667
berlstedt,51.0667,11.25
bermaringen,48.4667,9.8333
bermatingen,47.7333,9.35
bermbach,50.2333,8.3167
bermel,50.2833,7.0833
bermering,48.4333,12.6167
bermersheim,49.6819,8.2236
bermoll,50.65,8.45
bermsgrun,50.5167,12.7833
bermuthshain,50.4667,9.3167
bern,51.1167,7.1167
bernau,52.6667,13.5833
bernau am chiemsee,47.8167,12.3667
bernau innerlehen,47.8,8.0333
bernbach,48.8333,8.4
bernbeuren,47.7333,10.7833
bernbichl,48.05,12.45
bernburg,51.8,11.7333
berndiel,49.6833,9.3333
berndorf,50.3,6.7
berndroth,50.2333,7.9667
berne,53.6333,10.1333
berneck,48.3833,8.3833
berngau,49.25,11.4
bernhalden,49.0167,9.45
bernhards,50.6,9.7167
bernhardsdorf,48.8667,10
bernhardshofe,48.6,8.1167
bernhardswald,49.1,12.25
bernhardsweiler,49.0667,10.2333
bernhaupten,47.8167,12.6
bernhausen,48.0333,9.5167
bernheide,53.0667,11.6333
bernitt,53.9,11.8833
bernkastel kues,49.9167,7.0667
bernloch,48.3667,9.3333
bernloh,47.8,11.75
bernlohe,49.2,11.05
bernried,47.6667,9.6833
bernsbach,50.5833,12.7667
bernsbach oberpfannenstiel,50.5833,12.75
bernsburg,50.8167,9.1667
bernsdorf,51.75,13.2
bernsen,52.2167,9.1667
bernsfeld,50.6667,8.9833
bernsfelden,49.5633,9.8942
bernshausen,50.9,8.3167
bernstadt,48.5,10.0167
bernstein,48.85,13.3833
bernstorf,53.6333,10.9667
bernterode,51.3,10.15
bernthal,49.3333,11.5
berod,50.4833,7.9333
berod bei hochstenbach,50.65,7.6833
berod bei wallmerod,50.4833,7.9333
berolzheim,49.475,9.54
berrendorf,50.9167,6.5833
berrenrath,50.8667,6.8333
berscheid,49.9833,6.2333
berschweiler,49.5833,7.3
bersenbruck,52.55,7.9333
bersrod,50.6167,8.85
berssel,51.95,10.7667
berstadt,50.4333,8.8667
bersteland,52.0155,13.7843
bertensdorf,48.5333,12.55
berthelsdorf,50.7667,12.5
berthke,54.2167,12.9333
bertikow,52.9667,12.6167
bertingen,52.35,11.8333
bertingloh,51.45,7.7
bertkow,52.7333,11.9
bertoldsheim,48.75,11.0167
bertoldshofen,47.7833,10.6667
bertsdorf,50.8833,14.7333
berum,53.6,7.3
berumbur,53.6,7.3167
berumerfehn,53.5667,7.3333
berus,49.2667,6.7
berwangen,47.6333,8.5
berzbuir,50.7667,6.4667
berzdorf,50.8333,6.95
berzhahn,50.5333,8
berzhausen,50.6667,7.5667
besandten,53.1,11.2833
besch,49.5,6.3667
beschaunen,47.9,10.4667
bescheid,49.75,6.8833
beschendorf,54.1833,10.8667
besdorf,54.05,9.3667
beseland,52.9667,10.9667
beselich,50.45,8.1667
beselin,54.05,12.2167
besenbek,53.7667,9.6333
besendorf,53.5167,11.3
besenfeld,48.5833,8.4167
besenthal,53.5333,10.7333
beseritz,53.7,13.45
besigheim,48.9833,9.1333
besitz,53.35,10.8667
besse,51.2167,9.3833
bessenbach,49.9694,9.2686
besseringen,49.4833,6.6
bessingen,52.2,8.8167
besslich,49.8,6.6
besten,51.65,6.9
bestenbostel,52.5833,9.7
bestenheid,49.7825,9.4975
bestensee,52.25,13.65
bestwig,51.3667,8.4
betberg,47.8535,7.662
betenbrunn,47.8167,9.35
bethau,51.6667,13
betheln,52.1167,9.8
bethenhausen,50.9333,12.2
bethingen,49.4667,6.5333
bethlehem,48.1833,10.0167
betlinshausen,48.25,10.1167
betra,48.4167,8.6667
bettbrunn,48.8667,11.55
betteldorf,50.25,6.75
betten,51.6333,13.7667
bettendorf,50.8833,6.2
bettenfeld,50.0833,6.7667
bettenhausen,49.4667,7.45
bettenhoven,50.95,6.4667
better,50.5667,7.1
bettgenhausen,50.65,7.5667
bettingen,49.95,6.4
bettingerode,51.9,10.5833
bettinghausen,51.6167,8.2
bettmar,52.1667,10.05
bettmaringen,47.75,8.3667
bettnang,47.7,8.95
bettnau,47.5667,9.65
bettrath,51.2167,6.6
bettringen,48.7833,9.85
bettrum,52.2,10.1667
betzdorf,50.7833,7.8833
betzemerhof,50.2333,7.4167
betzendorf,53.1333,10.3167
betzenstein,49.6833,11.4167
betzenweiler,48.1167,9.5667
betzhorn,52.6167,10.6
betziesdorf,50.85,8.8333
betzigau,47.7333,10.3833
betzigerode,51.0667,9.1833
betzingen,48.5,9.1833
betzisried,47.95,10.35
betzweiler,48.3667,8.4833
beucha,51.15,12.5833
beuchen,49.6008,9.2319
beucherling,49.1667,12.4333
beuchlitz,51.45,11.9
beuchow,54.3667,13.5
beuchte,51.9833,10.5167
beuditz,51.0833,11.85
beuel,50.7333,7.1333
beuerbach,50.2833,8.2167
beuerberg,47.8333,11.4167
beuerfeld,50.3167,10.95
beuern,48.0833,11.0833
beuernfeld,51.0167,10.4
beul,50.7333,7.6333
beulich,50.1833,7.45
beulwitz,50.65,11.3333
beuna,51.3167,11.95
beuren,47.75,10.0167
beuren am ried,47.8,8.7
beuron,48.05,8.9667
beusloe,54.1167,10.8667
beuster,52.9333,11.7833
beutel,53.1167,13.4
beutelsbach,48.8,9.3833
beutelsdorf,50.7667,11.4833
beutersitz,51.5833,13.3667
beutha,50.6667,12.7167
beutnitz,50.9667,11.6833
beutzen,52.7833,10.0833
bevenrode,52.3333,10.5833
bevensen,53.0833,10.5833
beverbeck,53.1167,10.4167
beverbruch,52.95,8.1
bevergern,52.2833,7.6
beveringen,53.15,12.2167
bevern,53.75,9.7667
beverstedt,53.4333,8.8167
beverstrang,52.0333,7.9333
beverungen,51.6667,9.3667
bexbach,49.3333,7.2667
bexhovede,53.4833,8.6833
bexten,52.35,7.3833
bexterhagen,52.0333,8.6833
beyenburg,51.25,7.3
beyerberg,49.1167,10.5
beyern,51.6167,13.2
beyernaumburg,51.4833,11.4
beyersdorf,51.6,12.1833
beyharting,47.9333,11.9833
bezgenriet,48.6667,9.6167
bias,51.9333,12.1
bibelsberg,47.9,10.3333
biber,47.7333,12.1
biberach,48.1,9.8
biberach an der riss,48.1,9.8
biberachzell,48.3167,10.2167
biberau,50.5,10.8667
biberbach,48.35,11.5
biberberg,48.35,10.2167
bibereck,48.2667,11.3667
biberg,47.9667,11.95
bibergau,49.8,10.1
biberkor,47.95,11.3833
bibersbach,48.6,13.35
biberschlag,50.5,10.8667
bibersfeld,49.0814,9.6883
bibertal,48.4,10.2
biblis,49.6917,8.4586
bibow,53.7833,11.6333
bibra,50.4667,10.4333
biburg,48.0667,12.5167
bichel,47.5667,9.65
bichishausen,48.3333,9.5
bichl,47.7167,11.4167
bichlberg,48.6833,13.2333
bickelsberg,48.2833,8.7
bicken,50.6833,8.3833
bickenbach,51,7.4333
bickendorf,50.9667,6.9
bickenriede,51.25,10.35
bickensohl,48.0667,7.65
bickhusen,53.4,10.6333
bicking,51.6833,13.1833
bidingen,47.8333,10.7333
biebelhausen,49.65,6.5333
biebelnheim,49.7967,8.1706
biebelried,49.7667,10.0833
biebelsheim,49.8667,7.9333
bieber,50.0833,8.8
bieberach,51.2667,13.65
bieberbach,49.2,10.2833
bieberehren,49.5167,10
biebergemuend,50.2072,9.2807
biebergemund,50.2,8.2667
biebermuhle,49.2667,7.6
biebern,49.9833,7.45
biebernheim,50.15,7.7
bieberstein,51,13.3333
biebertal,50.6,8.5667
biebesheim,49.7836,8.4744
biebrich,50.3167,7.95
biedenbach,48.3667,12.2667
biedenkopf,50.9167,8.5333
biederbach,49.2,10.7167
biederitz,52.15,11.7167
biedersdorf,48.3667,12.2333
biedershausen,49.3167,7.4833
biedesheim,49.605,8.1072
bieg,49.35,10.3833
biegen,52.3167,14.3667
biegenbruck,52.2667,14.35
biehlen,51.4833,13.95
biel,49.5,6.8667
bielatal,50.8667,14.05
bielefeld,52.0333,8.5333
bielen,51.4833,10.8333
bielenberg,53.75,9.4333
bielstein,50.9667,7.5
biemenhorst,51.8167,6.6167
biendorf,54.0833,11.7
biene,52.5667,7.2833
bienen,51.8,6.3667
bienenbuttel,53.1333,10.4833
bienenfarm,52.6667,12.7333
bienenmuhle,50.7333,13.55
biengen,47.9385,7.6921
bienstadt,51.0167,10.85
bierbach,49.7667,8.8667
bierbergen,52.25,10.1167
bierdorf,47.9667,11.1
biere,51.9667,11.65
bierenbachtal,50.9167,7.55
bierfeld,49.6,6.95
bieringen,48.45,8.85
bierlingen,48.4333,8.8167
biersdorf,50.0167,6.45
bierstadt,50.0837,8.2863
bierstedt,52.7167,11.0167
bierstetten,48.0167,9.5833
biesdorf,52.7167,14.0667
bieselbach,48.4,10.65
biesendorf,47.9167,8.8167
biesenhard,48.8,11.15
biesenrode,51.6,11.3833
biesenstuck,50.7333,7.85
biesenthal,52.7667,13.6333
biesfeld,51.0167,7.2333
biesingen,49.2167,7.2
biesnitz,51.1167,14.9667
biessenhofen,47.8333,10.6333
biesterfeld,51.8667,9.2667
bieswang,48.9333,11.0333
bietegast,51.8,12.7167
bietenhausen,48.4167,8.8667
bieth,51.3,6.2333
bietigheim,48.9167,8.25
bietigheim bissingen,48.9667,9.1333
bietikow,53.2667,13.95
bietingen,47.7333,8.7333
bietzefeld,53.4167,7.5333
bietzen,49.4167,6.65
biezighofen,47.9333,7.8167
bigge,51.35,8.4667
bihlafingen,48.25,9.95
bihlerdorf,47.5333,10.25
bildchen,50.7333,6.0333
bildechingen,48.4667,8.7167
bildschacherhof,49.4,7.55
bildstock,49.3333,7.1
bilfingen,48.95,8.6167
bilk,52.25,7.2667
bilkheim,50.5,7.95
billafingen,47.8333,9.1333
billberge,52.6333,12
billbrook,53.5333,10.0833
billeben,51.2667,10.7333
billenhagen,54.1333,12.35
billenhausen,48.2667,10.3667
billensbach,49.0631,9.3661
billerbeck,51.9667,7.3
billigheim,49.3486,9.2539
billigheim ingenheim,49.1367,8.0906
billings,49.7564,8.7944
billingsbach,49.3047,9.8975
billingsdorf,48.4833,11.7
billingshausen,49.8719,9.7211
billroda,51.2,11.45
billstedt,53.55,10.1333
billwerder,53.5167,10.1167
bilm,52.3333,9.9167
bilsdorf,49.3833,6.8167
bilsen,53.7667,9.8833
bilshausen,51.6167,10.1667
bilstein,51.05,7.3167
bilzingsleben,51.2833,11.0667
bimbach,50.5667,9.5833
bimisdorf,47.7,9.8667
bimohlen,53.9333,9.95
bimstorth,51.0667,9.5833
binabiburg,48.4333,12.4333
binau,49.3683,9.0581
binde,52.85,11.3833
binder,52.1,10.1833
bindersleben,50.9667,10.95
bindlach,49.9817,11.6139
bindow,52.2833,13.75
bindsachsen,50.35,9.1667
binenwalde,53.05,12.8
bingarten,49.8667,12
bingen,49.9667,7.9
bingen am rhein,49.9667,7.9
bingenheim,50.3667,8.9
bingerbruck,49.9667,7.8833
bingum,53.2167,7.4
binnen,52.6167,9.1333
binnenbach,48.5333,10.9833
binnewitz,51.15,14.4667
binningen,47.8167,9.6167
binsbach,49.95,10
binscheid,50.1167,6.25
binsdorf,48.3,8.75
binselberg,49.2333,9.8833
binsfeld,50.8,6.5333
binsforth,51.0667,9.5833
binswangen,49.1667,9.2667
binz,54.3833,13.6167
binzen,47.6322,7.6218
binzenbach,50.5167,6.9
binzgen,47.5833,8.0667
binzwangen,49.3833,10.3667
bippen,52.5833,7.7333
birchau,48.4833,13.2333
birenbach,48.75,9.6667
birgden,51,6.05
birgel,50.3167,6.6167
birgelen,51.1,6.15
birgland,49.4352,11.6168
birgte,52.2333,7.6667
biringen,49.4167,6.55
birk,50.8333,6.1167
birkach,48.7167,9.2
birkelbach,51.0167,8.2667
birken,50.8167,7.3333
birkenau,49.5625,8.7069
birkenbeul,50.7333,7.6167
birkenbusch,52.7667,8.3333
birkendorf,47.75,8.3167
birkenfeld,48.8667,8.6333
birkenfelde,51.35,10.0167
birkenhain,52.3833,13.3
birkenhard,48.1167,9.7667
birkenheide,49.4814,8.2619
birkenhof,50.5333,9.8333
birkenhohe,52.65,13.6
birken honigsessen,50.8167,7.7333
birkenhordt,49.1167,7.9333
birkenhugel,50.4333,11.75
birkenlohe,48.9,9.7833
birkenreuth,49.7833,11.2333
birkenstein,52.5167,13.65
birkenwald,50.2833,12.25
birkenweissbuch,48.85,9.4833
birkenwerder,52.6833,13.2833
birkenzell,48.9833,10.2667
birkert,49.7522,8.9439
birkesdorf,50.8167,6.4667
birket,48.3333,12.35
birkheim,50.1167,7.6167
birkhof,47.8667,9.4
birkholz,52.1167,13.8167
birkhorst,52.1833,12.9
birkigt,50.3333,12.1167
birkland,47.8667,10.95
birklingen,49.7167,10.35
birkmannsweiler,48.8667,9.4333
birkungen,51.3667,10.3333
birkweiler,49.2033,8.0383
birlenbach,50.3667,8
birlinghoven,50.75,7.2167
birnbach,50.7,7.5833
birnbaum,50.85,10.7333
birnbrunn,49.1167,12.7
birnfeld,50.2,10.4333
birresborn,50.1833,6.6333
birresdorf,50.5833,7.1333
birstein,50.35,9.3
birten,51.6333,6.4833
birth,51.2,6.2
birtlingen,49.95,6.4833
birx,50.5333,10.05
bischberg,49.3667,11.4667
bischbrunn,49.8703,9.4892
bischdorf,51.7989,13.9698
bischhagen,51.4333,10.1
bischhausen,51.1333,9.9333
bischheim,49.67,8.0325
bischleben,50.9333,10.9833
bischmatt,47.7833,7.9167
bischmisheim,49.2167,7.0667
bischof,53.9167,9.4
bischoffen,50.7,8.45
bischofferode,51.1333,9.7667
bischoffingen,48.1043,7.6272
bischofrod,50.55,10.65
bischofroda,51.05,10.3667
bischofrode,51.4833,11.5333
bischofsdhron,49.8167,7.15
bischofsgrun,50.05,11.7833
bischofsheim,49.9939,8.3672
bischofsheim an der rhon,50.4,10.0167
bischofsmais,48.9167,13.0833
bischofsreut,48.85,13.7333
bischofswerda,51.1167,14.1833
bischofswiesen,47.65,12.95
bischweier,48.8333,8.2833
bischwind,49.9167,10.4
bisdorf,51.95,11.55
bishausen,51.6333,9.9667
bisingen,48.3167,8.9167
biskirchen,50.5333,8.3167
bislich,51.6833,6.4833
bislohe,49.5,11
bismarck,51.55,7.1
bismark,53.45,14.3167
bisperode,52.0833,9.5
bispingen,53.0833,10
bissee,54.1833,10.1167
bissel,52.95,8.1667
bissen,51.1167,6.3167
bissenberg,50.55,8.3
bissendorf,52.2333,8.1667
bissersheim,49.5358,8.2042
bissingen,48.5667,10.1667
bissingen an der teck,48.6,9.5
bistensee,54.4,9.7
bisterschied,49.65,7.75
bistoft,54.7,9.5333
bistoftholz,54.7,9.5333
bitburg,49.9667,6.5333
bittenfeld,48.8833,9.3167
bitter,53.1667,11.0333
bitterfeld,51.6167,12.3167
bittkau,52.4167,11.9667
bittstadt,50.8333,10.8833
bitz,48.2333,9.1
bitzen,50.8,7.6833
bitzenhofen,47.7333,9.4667
bitzfeld,49.1906,9.4444
blaibach,49.1667,12.8167
blaichach,47.5333,10.2667
blandikow,53.1167,12.3833
blandorf,53.6167,7.3167
blanke,52.4167,7.0667
blankenau,51.7,9.3833
blankenbach,50.0667,9.2333
blankenberg,50.4,11.7167
blankenburg,51.7833,10.95
blankenese,53.5667,9.8
blankenfelde,52.3333,13.4
blankenforde,53.35,12.9167
blankenhagen,51.9333,8.3833
blankenhain,50.8,12.2833
blankenheim,50.4333,6.65
blankenheimerdorf,50.4333,6.6333
blankenhof,53.5833,13.1333
blankenloch,49.07,8.465
blankenrath,50.0333,7.3167
blankensee,52.2333,13.1333
blankenstein,51.4,7.2333
blansingen,47.6912,7.5416
blasbach,50.6167,8.5167
blasberg,51.0833,7.1
blasen,48.5333,13.2667
blasweiler,50.4667,7.1
blattersleben porschutz,51.25,13.4833
blatz,52.3833,11.6833
blatzheim,50.85,6.6333
blaubach,49.2767,9.9808
blaubeuren,48.4,9.7833
blaubeuren gerhausen,48.4,9.8
blauenneuschacht,49.6167,11.9
blauenthal,50.5167,12.6333
blaufelden,49.2978,9.9739
blaumhofen,50.5333,7.8333
blaustein,48.4156,9.9214
bleche,51.0667,7.7333
blecher,51.05,7.1167
blechhammer,50.45,12.5667
bleck,52,7.15
bleckede,53.3,10.7333
bleckenrode,51.4667,10.2167
bleckenstedt,52.1833,10.4167
bleckhausen,50.1333,6.7833
bleckmar,52.8333,9.9333
bleddin,51.7833,12.7833
bledeln,52.2833,9.9167
bledesbach,49.5333,7.3833
blee,51.0667,6.8833
bleialf,50.2333,6.2833
bleibach,48.1167,8
bleiche,47.8667,9
bleichenbach,50.3333,9.05
bleicherode,51.4333,10.5833
bleichstetten,48.4667,9.35
bleidenstadt,50.1333,8.1333
bleischmelz,49.8333,6.7
bleistein,49.65,12.4167
bleiwasche,51.4667,8.7167
blekendorf,54.2833,10.65
blender,52.9167,9.1333
blenheim,48.6333,10.6667
blenhorst,52.7167,9.1333
blerichen,50.9833,6.5667
blesewitz,53.8167,13.6167
bleyen,52.5833,14.5833
blickstedt,54.3833,10.0333
blickweiler,49.2167,7.25
bliedersdorf,53.4833,9.5667
bliederstedt,51.2667,10.85
blieschendorf,53.7833,11.1333
bliesdalheim,49.1667,7.2333
bliesdorf,52.7,14.15
bliesekow,54.0333,11.9833
bliesen,49.5,7.1167
bliesendorf,52.3333,12.85
bliesenrade,54.3833,12.5833
bliesheim,50.7833,6.8167
blieskastel,49.2333,7.25
bliesmengen,49.15,7.1167
bliesmengen bolchen,49.15,7.1167
bliesransbach,49.1656,7.0894
bliestorf,53.7667,10.6
blievenstorf,53.3667,11.6667
blindheim,48.6333,10.6333
blindow,53.3667,13.8833
blissenbach,51.0167,7.2
blitzenreute,47.8667,9.5833
bloch,50.8667,7.2833
blochingen,48.0667,9.35
blochwitz,51.35,13.6833
blocktach,47.8833,10.5
blofeld,50.3667,8.9333
bloh,53.15,8.1333
bloherfelde,53.1333,8.15
bloischdorf,51.6,14.4833
blomberg,51.9333,9.0833
blomesche wildnis,53.8,9.4167
blomnath,54.0333,10.4833
blonhofen,47.9167,10.75
blonried,47.9333,9.5833
blonsdorf,51.95,12.8833
blosien,51.3333,11.9167
blossenau,48.8167,10.9333
blossin,52.25,13.8
blowatz,53.9833,11.5333
blucher,53.35,10.8333
blumberg,47.8333,8.5333
blume,51.2,7.25
blumegg,47.65,9.7333
blumenberg,52.0333,11.45
blumendorf,53.8,10.3167
blumenfeld,47.8167,8.6833
blumenhagen,53.1167,14.3
blumenholz,53.4167,13.1167
blumenthal,53.1833,8.5833
blumroth,51.6167,8.0667
blunau,51.5333,14.2167
blunk,54.0167,10.3167
bluno,51.5333,14.2167
blutlingen,52.9167,11.1333
bobbau,51.6833,12.2667
bobbin,53.9667,12.7667
bobeck,54.7333,9.95
bobengrun,50.35,11.65
bobenhausen,50.3667,9.0333
bobenhausen zwei,50.5833,9.1333
bobenheim,49.5875,8.3578
bobenheim am berg,49.5242,8.1511
bobenheim roxheim,49.5875,8.3578
bobenneukirchen,50.3833,12.0667
bobenthal,49.0667,7.8667
boberow,53.15,11.6167
bobersen,51.3167,13.3
bobing,47.75,10.9833
bobingen,48.2667,10.8333
bobingen an der rems,48.8167,9.9167
bobitz,53.8,11.35
boblas,51.1167,11.8167
boblingen,48.6833,9.0167
boblitz,51.8333,13.9833
bobrach,48.9333,12.8833
bobritzsch,50.9,13.4444
bobs,53.9833,10.6333
bobstadt,49.6617,8.4478
bobzin,53.4833,11.15
bochingen,49.2369,8.0933
bocholt,51.8333,6.6
bochow,51.95,13.1
bochum,51.4833,7.2167
bock,50.1667,6.1833
bocka,50.8167,11.9667
bockau,50.55,12.7
bockel,51.2167,7.2
bockelnhagen,51.5667,10.4167
bockelse,52.5167,10.3167
bockelskamp,52.5667,10.15
bockelwitz,51.2,12.9667
bockenau,49.8333,7.6833
bockenem,52.0167,10.1333
bockenheim,49.6064,8.1819
bockeroth,50.7167,7.2333
bocket,50.9667,6.0667
bockholmwik,54.8333,9.6167
bockholt,54.1167,10.65
bockhop,52.6833,8.9833
bockhorn,53.4,8.0167
bockhornerfeld,53.35,8
bockhorst,53.0333,7.5833
bockighofen,48.2333,9.7667
bockingen,49.1339,9.1886
bocklemund,50.9667,6.8667
bockschaft,49.2036,8.9661
bocksee,53.4833,12.8833
bockstadt,50.4,10.8833
bockum,51.3333,6.7333
bockum hovel,51.7,7.7333
bockup,53.2,11.3
bockweiler,49.1833,7.3
bockwitz,51.1333,12.8833
boddensell,52.3667,11.2333
boddenstedt,52.9333,10.45
boddin,53.5833,11.1
boddinsfelde,52.3,13.5
bode,53.0333,10.35
bodefeld,51.25,8.4
bodelschwingh,51.55,7.3667
bodelshausen,48.4,8.9667
bodelstadt,50.1333,10.8833
bodelwitz,50.6833,11.6167
boden,50.4667,7.85
bodenbach,50.3167,6.85
bodenberg,50.6167,13.0833
bodenburg,52.0333,10.0167
bodendorf,50.55,7.2167
bodenfelde,51.6333,9.5667
bodenhausen,51.3333,9.3167
bodenheim,49.9353,8.32
bodenkirchen,48.3833,12.3833
bodenmais,49.0667,13.1
bodenreuth,49.8333,12.2333
bodenrod,50.4,8.55
bodenrode,51.4,10.2167
bodensee,51.6,10.1333
bodenstedt,52.2333,10.3333
bodenstein,52,10.2333
bodenteich,52.8333,10.6833
bodenwerder,51.9667,9.5167
bodenwohr,49.2667,12.3167
bodersweier,48.6,7.8667
bodes,50.8,9.7333
bodexen,51.8333,9.3333
bodigheim,49.4786,9.3144
bodman,47.8,9.0333
bodman ludwigshafen,47.8167,9.0667
bodnegg,47.7167,9.6833
bodolz,47.5667,9.6667
bodstedt,54.3833,12.6333
boeblingen,48.6833,9.0167
boecke,53.0667,10.7667
boehlen,51.2,12.3833
boek,53.2,11.45
boekzetelerfehn,53.3333,7.5167
boel,54.65,9.7167
boele,51.4,7.4667
boelschuby,54.65,9.6833
boen,52.7333,7.7833
boesel,53,7.95
boesensell,51.9167,7.4833
boffingen,48.4333,8.5333
boffzen,51.75,9.3833
bofingen,48.4333,10.0167
boge,53.5,10.2333
bogel,50.1833,7.8
bogelhuus,54.8667,9.15
bogen,48.9167,12.6833
bogenhausen,48.15,11.6167
bogheim,50.7333,6.4333
bohen,47.8833,10.3
bohl,49.3831,8.2969
bohla,51.2333,13.55
bohland,47.6333,8.1667
bohle,50.8167,6.8833
bohlen,51.2,12.3833
bohlendorf,54.0667,12.6667
bohl iggelheim,49.3806,8.3039
bohlingen,47.7167,8.9
bohlitz,51.4333,12.75
bohlsen,52.9667,10.4667
bohme,52.7833,9.4667
bohmen,49.4167,6.9
bohmenkirch,48.6833,9.9333
bohmfeld,48.8667,11.3667
bohming,48.95,11.3667
bohmshof,53.2167,13.2667
bohmstedt,54.5833,9.05
bohmte,52.3667,8.3167
bohndorf,53.1833,10.6333
bohne,52.5667,12.3
bohnenburg,53.1667,11.1167
bohnenland,52.4667,12.5
bohnert,54.5333,9.7667
bohnhorst,52.4333,8.8167
bohnhusen,54.2167,10.0667
bohnsdorf,52.4,13.5667
bohrigen,51.0333,13.1667
bohringen,47.75,8.9333
bohringsweiler,49.0667,9.5167
bohsdorf,51.6333,14.5333
boich,50.7167,6.5
boienhagen,53.8167,11.25
boiensdorf,54.0167,11.5667
boisdorf,50.9,6.7167
boisheim,51.2667,6.2667
boissow,53.5667,10.9667
boitin,53.7667,11.9833
boitin resdorf,53.8,10.8667
boitze,53.15,10.75
boitzen,53.3333,9.3833
boitzenburg,53.2667,13.6
boitzenburger land,53.255,13.5867
boitzenhagen,52.6167,10.8167
boizenburg,53.3833,10.7167
bojendorf,54.4833,11.0333
boke,50.9667,7.2667
bokel,51.8,8.3667
bokelesch,53.1667,7.65
bokelholm,54.25,9.7667
bokelhop,54.2,9.45
bokeloh,52.4167,9.3833
bokelrehm,54.0333,9.3833
boken,54.0833,9.8
bokensdorf,52.5,10.7167
bokholt,53.7833,9.7167
bokholt hanredder,53.7833,9.7167
bokhorst,54.0667,9.4
boklund,54.4167,9.5667
boksee,54.2333,10.1333
bolanden,47.85,9.7333
bolanderhof,49.65,8.0333
bolbritz,51.2,14.3333
boldebuck,53.7833,12.0833
boldekow,53.7333,13.6
boldela,53.5333,11.4
boldenshagen,54.0833,11.7667
boldenstorf,53.95,11.9833
boldixum,54.7,8.55
bolheim,48.6333,10.15
bolingen,47.7167,8.9
bolkow,53.75,12.1833
boll,47.8333,8.35
bolland,54.0167,11.75
bollberg,50.8833,11.8
bollbrugge,54.3333,10.95
bollen,47.8,7.85
bollenbach,48.3,8.0667
bollenborn,49.1,7.9333
bollendorf,49.85,6.3667
bollensdorf,51.8333,13.3833
bollensen,51.65,9.6667
bollersdorf,52.5833,14.05
bollewick,53.35,12.5833
bollhaus,54.7,8.8333
bolling,51.2833,7.5667
bollingen,48.45,9.9167
bollingstedt,54.6,9.4167
bollmoor,53.6333,10.3667
bollsberg,48.1,10.0333
bollschweil,47.9167,7.7833
bollstadt,48.75,10.5
bollstedt,51.2,10.5333
bollstein,49.7406,8.9211
bollwerk,51.1667,7.5833
bolsberg,50.6667,7.9167
bolschwitz,51.75,14.0333
bolsdorf,50.2833,6.6667
bolsehle,52.5667,9.3
bolsterlang,47.4667,10.2333
boltenhagen,53.9833,11.2167
boltersen,53.2667,10.5667
boltoft,54.7333,9.7667
boltzenhoh,51.5167,11.75
bolz,53.6833,12
bolzke,53.1167,12.2833
bolzum,52.3,9.95
bombach,50.9167,7.2667
bomenzien,52.9833,11.5333
bomhake,52.4167,8.35
bomitz,53.95,13.7
bomlitz,52.9,9.65
bommelsen,52.95,9.7
bommen,47.6,10.3167
bommern,51.4167,7.25
bommersheim,50.2,8.6
boms,47.9667,9.5167
bomsdorf,51.6167,13.3
bonaforth,51.4,9.6333
bonames,50.1833,8.6667
bonbaden,50.5,8.4167
bonbruck,48.3167,12.2833
bondelum,54.5667,9.2667
bondorf,48.0167,9.5333
bonebuttel,54.0833,10.0667
bonefeld,50.5333,7.5
bonen,51.6,7.7667
bonenburg,51.55,9.05
bonerath,49.6833,6.7667
bonese,52.8167,10.85
bonfeld,49.2139,9.0956
bongard,50.3,6.8333
bongartzhof,51.15,6.6333
bongsiel,54.6833,8.8167
bonitz,51.5333,13.3
bonlanden,48.0667,10.0833
bonn,50.7333,7.1
bonn bad godesberg,50.6833,7.15
bonn beuel,50.7333,7.1333
bonndorf,47.8167,8.35
bonndorf im schwarzwald,47.8167,8.35
bonnhagen,53.85,11.1
bonnhof,48.9667,10.95
bonnien,52.0333,10.1
bonnigheim,49.0406,9.0928
bonningstedt,53.6667,9.9167
bonn lengsdorf,50.7167,7.0667
bonsbeuren,50.05,7.0333
bonscheuer,50.2667,8.0333
bonstadt,50.2833,8.85
bonstetten,48.4333,10.7
bonstrup,54.7833,9.6333
bonsweiher,49.6175,8.7131
bontkirchen,51.35,8.6667
boock,53.4833,14.2667
book,53.4833,14.2667
bookholzberg,52.6667,9.6833
bookhorst,54.2,12.5
boos,47.9833,9.5667
boossen,52.3667,14.4833
boostedt,54.0167,10.0333
bootz,53.2,11.7167
bopfingen,48.85,10.35
boppard,50.2333,7.6
borau,51.2,12
borbeck,53.2,8.15
borchel,53.1667,9.3667
borchen,51.6667,8.7333
bordel,51.4833,9.7833
bordelum,54.6333,8.9333
bordenau,52.45,9.4833
bordesholm,54.1833,10.0167
boren,54.6167,9.8167
borfink,49.6833,7.0833
borg,52.3667,7.2667
borgau,51.1833,11.5167
borgdorf,54.1833,9.8833
borgdorf seedorf,54.1667,9.8833
borgeln,51.6,8.0333
borgentreich,51.5667,9.25
borger,52.9,7.5167
borgerende,54.15,11.9
borgerende rethwisch,54.1333,11.9167
borgermoor,53.0167,7.5
borgerwald,52.9667,7.5
borgfeld,53.1333,8.9
borgfelde,53.55,10.0833
borghees,51.85,6.2333
borgholz,51.6167,9.2667
borgholzhausen,52.1,8.3
borghorst,52.1333,7.4167
borgisdorf,51.9333,13.1333
borgitz,52.55,11.6333
borgloh,52.2,8.1833
borgsdorf,52.7167,13.25
borgstedt,54.3333,9.7167
borgsum,54.7,8.4667
borgwedel,54.5,9.6667
boritz,51.2667,13.4
bork,51.6667,7.4667
borken,51.85,6.8667
borkenhagen,53.95,11.0667
borkheide,52.1833,12.8667
borkow,53.6667,11.9333
borkum,53.5833,6.6667
borkwalde,52.25,12.8333
borlas,50.9333,13.6167
borler,50.3167,6.8333
borln,51.3833,12.9333
borm,54.4,9.3833
born,51.25,6.2
born am darss,54.3833,12.5333
borna,51.1167,12.5
bornberg,50.4167,9.7167
borne,52.1167,12.5333
bornecke,51.8167,11.0333
borner,50.9333,7.75
bornersdorf,50.8333,13.8833
bornhagen,51.3333,9.95
bornhausen,50.9333,7.5
bornheim,50.7667,7
bornholt,54.1,9.3333
bornhorst,53.7833,10.1667
bornhoved,54.0667,10.2333
bornich,50.1333,7.7667
bornichen,50.75,13.1333
bornicke,52.6667,13.6333
borninghausen,52.2833,8.5
bornitz,51.2333,13.4167
bornsen,53.4833,10.2833
bornstedt,51.4833,11.4833
bornstein,54.4167,9.9333
bornum,51.9833,10.15
borod,50.6667,7.7
borrat,48.8833,9.9333
borrentin,53.8167,12.9667
borrstadt,49.5833,7.95
borry,52.0333,9.4667
borsborn,49.4333,7.4
borsbull,54.6,8.9833
borsch,50.7333,9.9667
borscheid,50.6,7.45
borschutz,51.4,13.2167
borsdorf,50.4333,8.9667
borsfleth,53.8333,9.4333
borslingen,48.5333,10.0667
borssum,52.0667,10.5833
borstel,52.2167,8.75
borstel in der kuhle,53.1,10
borstel hohenraden,53.6833,9.8167
borstendorf,50.7833,13.1667
borstingen,48.45,8.8
borstorf,53.6167,10.5667
borsum,52.2167,10.0167
bortewitz,51.2167,12.9833
bortfeld,52.3,10.4
borth,51.6,6.55
borthen,50.9667,13.8
bortlingen,48.75,9.6333
borwang,47.7833,10.3667
borxleben,51.4,11.2333
borzow,53.85,11.1167
bosau,51.1667,12.1667
bosbull,54.8167,8.8667
boscheln,50.9,6.1333
boschen,47.7833,9.7833
bosdorf,51.25,12.3
boseckendorf,51.4833,10.2
bosel,53,7.95
bosen,52.9333,10.9333
bosenbach,49.5333,7.5333
bosenbrunn,50.4,12.1
bosenheim,49.85,7.9167
bosenrode,51.4667,10.9833
bosensell,51.9167,7.4833
bosewitz,50.9667,13.8333
bosingen,48.2333,8.55
bosingfeld,52.0667,9.1167
bosinghausen,51.5667,10.0667
bosinghoven,51.3,6.65
boslar,50.9667,6.3333
bosleben,50.8333,11.0667
bosleben wullersleben,50.8333,11.0667
bosse,52.7667,9.45
bosseborn,51.75,9.3
bossee,54.2833,9.9
bossel,51.2333,7.45
bossendorf,51.7167,7.1833
bosserode,50.95,9.9833
bossin,53.8667,14.1
bossow,53.6167,12.25
bostel,52.65,10.1333
bosten,53.3667,8.6667
botelsdorf,53.75,11.15
botenheim,49.0667,9.0653
botersen,53.1333,9.3167
botersheim,53.3167,9.75
bothel,52.5167,9.0333
bothenheilingen,51.1833,10.6167
bothfeld,52.4333,9.8167
bothkamp,54.2,10.1333
bothmer,52.7,9.6
botingen,49.2833,9.15
botnang,48.7833,9.1333
bottenau,48.5167,8.05
bottenbach,49.1833,7.5
bottenberg,50.9,7.9
bottenbroich,50.8833,6.75
bottendorf,51.0167,8.8
bottenhorn,50.7833,8.4833
bottigheim,49.7064,9.6547
bottingen,48.0833,7.7833
bottmersdorf,52.0333,11.4333
bottrop,51.5167,6.9167
botzingen,48.0761,7.7251
botzow,52.6333,13.1333
bourheim,50.9,6.3333
bous,49.2833,6.8
bovenau,54.3333,9.8333
bovenden,51.5833,9.9333
boving,53.5333,8.45
boxberg,49.4814,9.6403
boxdorf,51.1167,13.7
boxlund,54.5667,9.15
boxtal,49.7647,9.4028
braach,51,9.6833
braak,53.6167,10.25
braake,53.1333,8.6333
brachbach,49.1856,9.7242
brachelen,51.0167,6.2333
brachenfeld,54.0833,10.0167
brachfeld,48.35,8.5667
brachstadt,48.7,10.6667
brachstedt,51.5667,12.05
bracht,51.1667,8.15
brachtendorf,50.2333,7.2333
brachthausen,51.0333,8.0833
brachttal,50.3167,9.2833
brachwitz,51.5333,11.8667
brackel,51.5333,7.55
brackenheim,49.0797,9.065
brackstedt,52.4833,10.7667
brackwede,51.9833,8.5167
braderup,54.8333,8.9
bradikow,52.6833,12.65
bradoberadorf,50.4333,8.5
brahlstorf,53.3667,10.9333
brahmenau,50.9167,12.1667
brahmow,51.8,14.1667
braidbach,50.3833,10.1833
brainkofen,48.8333,9.8667
brake,53.3333,8.4833
brakel,51.7167,9.1833
brakelsiek,51.8833,9.1667
bralitz,52.8333,14
brambach,48.25,8.45
brambauer,51.5833,7.45
bramberg,50.1,10.6667
brambostel,52.9667,10.25
bramel,53.55,8.7
bramfeld,53.6167,10.0833
bramkamp,52.4333,8.7667
brammer,54.2,9.7667
bramsche,52.4,7.9833
bramstedt,54.8333,9.0833
bramstedtlund,54.85,9.0667
brand,50.6833,6.15
brand bei marktredwitz,50.0167,12.15
brandau,49.735,8.7383
brande,53.6167,9.8167
brande hornerkirchen,53.85,9.7167
brandenberg,50.7,6.4167
brandenburg,52.4167,12.55
brandenburg west,52.3833,12.4167
brand erbisdorf,50.8667,13.3333
branderoda,51.2667,11.7667
brandhof,48.9333,9.7
brandhofle,48.9333,9.6833
brandholz,47.9,10.2833
brandhub,48.1,12.6833
brandis,51.3333,12.6
brandl,47.7667,11.45
brandlengdorf,48.2667,12.05
brandloh,48.5333,11.75
brandmatt,48.6,8.1667
brandoberndorf,50.4333,8.5
brandsbeck,54.3,9.9333
brandscheid,50.2167,6.3167
brandshagen,54.25,13.1833
branitz,51.7333,14.3667
brannenburg,47.7333,12.1
branntweinhauser,48.7833,13.7333
braschoss,50.8167,7.2833
braschwitz,51.5167,12.0667
brase,52.6333,9.6
brasen,51.9667,12.3833
brasenberg,48.1167,9.6333
brasilien,54.4167,10.3833
brasselsberg,51.2667,9.4167
brassert,51.6667,7.0833
brastelburg,48.8333,10.1667
brattendorf,50.4667,10.85
braubach,50.2833,7.6667
brauchsdorf,48.6167,13.3333
brauel,53.05,10.35
brauerschwend,50.7,9.3167
brauna,51.2833,14.05
braunau,51.0833,9.1167
brauneberg,49.9167,6.9833
braunenweiler,48.0333,9.55
braunersberg,49.9333,11.3833
braunersgrun,50.0833,12.1
braunfels,50.5167,8.4
braunichswalde,50.8,12.2167
brauningshof,49.6333,11.0333
braunisheim,48.6,9.95
braunlage,51.7333,10.6167
braunlingen,47.9333,8.45
braunrode,51.6333,11.4
braunsbach,49.1992,9.7906
braunsbedra,51.3,11.9
braunsberg,53.05,12.8333
braunschweig,52.2667,10.5333
braunschwende,51.5833,11.2333
braunsdorf,51.3,11.9
braunsdorf,50.8667,12.7
braunsfeld,50.9333,6.9
braunshain,50.95,12.25
braunshardt,49.9153,8.5669
braunshausen,51.1167,8.6667
braunshorn,50.0833,7.5167
braunspforte,52.4167,11.65
braunsrath,51.05,6.0333
braunsroda,51.3,11.25
braunsteich,51.5,14.6833
braunweiler,49.8667,7.75
brausenried,48.8833,10.1
brautlach,48.7,11.45
brauweiler,50.9667,6.7833
brebach,49.2167,7.0333
brebel,54.6333,9.75
brebelholz,54.6333,9.7
breberen,51.0167,5.9833
brebersdorf,50.05,10.0667
brech,48.8333,9.6833
brechen,50.35,8.2
brechhofen,50.5667,7.6167
brecht,49.9833,6.4333
brechtefeld,51.3167,7.55
brechtorf,52.4833,10.8833
breckenheim,50.0833,8.3667
breckerfeld,51.2667,7.4667
breddenberg,52.95,7.6
breddewarden,53.5833,8.0667
breddin,52.8833,12.2167
breddorf,53.3,9.0833
brede,52.3333,8.85
bredelar,51.4167,8.7667
breden,52.1,8.7833
bredenbeck,51.9,7.4833
bredenbek,54.0833,10.3833
bredenborn,51.8167,9.1833
bredeney,51.4,6.9833
bredenfelde,53.4167,13.4167
bredenhorn,53.3667,9.6
bredenmoor,54.3333,9.9
bredow,52.5833,12.9333
bredstedt,54.6167,8.9833
breechen,53.9333,13.35
breege,54.6167,13.35
breese,53.0167,11.8
breesen,53.6333,13.1667
breest,53.7833,13.3333
bregenstedt,52.25,11.2167
brehm,51.0833,6.1333
brehme,51.5,10.3667
brehmen,49.5681,9.5553
brehna,51.55,12.2167
breibach,50.65,7.6
breidenbach,50.8833,8.4667
breidenstein,50.9,8.4667
breidscheid,50.6851,8.1912
breiholz,54.2,9.5333
breinermoor,53.2,7.5
breinig,50.7333,6.2333
breinum,52.05,9.9833
breisach,48.0328,7.5829
breisach am rhein,48.0328,7.5829
breit,49.7833,6.9
breitaich,48.6833,13.25
breitau,51.0667,10
breitbrunn,47.8833,12.4
breitbrunn am chiemsee,47.8833,12.4
breite,52.0167,8.95
breiteberg,50.9,14.7
breiteiche,52.4333,11.2167
breiten,49.4667,7.1667
breitenau,47.6167,12.15
breitenbach,47.9167,10.1
breitenbach am herzberg,50.7667,9.5167
breitenberg,53.9167,9.6333
breitenborn,50.1667,9.2667
breitenbronn,49.3661,9.025
breitenbrunn,49.7678,9.0678
breitenbuch,49.6194,9.1108
breitenburg,53.9,9.5667
breitendiel,49.6922,9.2183
breitendorf,51.15,14.6167
breitenfeld,52.5667,11.25
breitenfelde,53.6,10.6333
breitenfurst,48.85,9.6333
breitengussbach,49.95,10.8667
breitenhagen,51.9333,11.95
breitenhausen,48.8667,12.8333
breitenheerda,50.7833,11.2
breitenheim,49.7,7.6333
breitenhill,48.9333,11.5333
breitenholz,48.5667,8.95
breitenkamp,51.95,9.55
breitenlohe,48.9833,10.55
breitenrode,52.4667,10.9833
breitensee,50.35,10.5333
breitenstein,48.6333,9.05
breitenthal,48.2333,10.3
breitenwiesen,48.3667,11.4167
breitenworbis,51.4,10.4167
breitfurt,49.2,7.25
breithardt,50.2,8.1
breithulen,48.4167,9.6333
breitingen,48.5167,10
breitmoos,48.0833,12.1167
breitnau,47.9333,8.0833
breitscheid,50.8667,7.3
breitscheidt,50.75,7.65
breitungen,50.7667,10.3333
brekendorf,54.4167,9.6333
breklum,54.6,8.9833
brelingen,52.5667,9.6833
breloh,51.0167,7.6833
brem,47.7167,12.4667
brembach,50.4667,9.9167
bremberg,50.3167,7.9167
bremelau,48.3333,9.5333
bremen,53.0833,8.8
bremen grohn,53.1667,8.65
bremenhain,51.3667,14.95
bremen hemelingen,53.05,8.9
bremenhof,49.2167,10.8333
bremenried,47.5833,9.9
bremen vegesack,53.1667,8.6167
bremerhagen,54.15,13.15
bremerhaven,53.55,8.5833
bremerhorn,53.3333,8.7667
bremervorde,53.4833,9.1333
bremgarten,47.9175,7.6246
bremke,51.25,8.2167
bremm,50.1,7.1167
brempt,51.2167,6.2167
bremricherhof,49.6833,7.8333
bremscheid,50.55,7.3833
bremsdorf,52.15,14.5
bremthal,50.1333,8.3667
brend,48.85,9.7
brendel,52.2333,8.5833
brenden,47.7333,8.2167
brenk,50.4333,7.1833
brenken,51.5833,8.6
brenkenhagen,54.1667,10.9167
brenkhausen,51.8,9.35
brennberg,49.0667,12.4
brennenheide,52.1167,8.3833
brennet,47.5833,7.9167
brensbach,49.7739,8.8844
brenschede,51.1667,8.1333
brenz,53.3833,11.6667
bresch,53.2167,11.8833
bresegard,53.25,11.3667
breselenz,53.0333,11.0667
bresewitz,53.7,13.5167
brest,53.45,9.3833
bretleben,51.3333,11.2333
bretnig,51.15,14.0667
bretnig hauswalde,51.15,14.1
bretsch,52.85,11.6333
brettach,49.1194,9.52
bretten,49.0392,8.7028
brettenfeld,49.25,10.0167
bretthausen,50.6667,7.8833
brettheim,49.2833,10.0833
brettin,52.4333,12.1833
brettorf,52.9667,8.4667
bretwisch,54.0333,13
bretzen,47.9667,11.9
bretzenacker,48.85,9.45
bretzenheim,49.8667,7.9
bretzfeld,49.1794,9.4383
breuberg,50.6167,10.4167
breuna,51.4167,9.1833
breunigweiler,49.5667,7.9667
breunings,50.3,9.6
breuningsweiler,48.85,9.4167
breunsberg,50.0333,9.1667
breunsdorf,51.1333,12.4
brevorde,51.9167,9.4167
brey,50.2667,7.6333
breyell,51.3,6.2667
briamhan,50.2079,6.4202
brickeln,54.0167,9.2333
brickwedde,52.5167,7.9333
briedel,50.0167,7.15
briedeler heck,49.9833,7.2333
brieden,50.1833,7.2667
briedern,50.1,7.2
briel,47.6833,9.85
brielow,52.4667,12.55
briescht,52.1167,14.1167
briese,52.7,13.3
brieselang,52.5833,13
briesen,51.7333,14.1167
briesensee,51.9168,14.0149
brieske,51.4833,13.95
brieske ost,51.5,13.9667
brieskow,52.2667,14.5833
brieskow finkenheerd,52.2667,14.5833
briest,52.45,12.4333
brietlingen,53.3333,10.45
brigach,48.1,8.3
brigachtal,48.0167,8.4667
briggow,53.6167,12.9833
brigitta,51.5,14.35
brill,53.5667,7.6167
brillit,53.4167,8.9833
brilon,51.4,8.5833
brilon wald,51.35,8.5833
brimingen,49.9667,6.3667
brinjahe,54.1667,9.6333
brink,51.6333,7.7167
brinkhof,54.2333,13.1667
brinkum,53.0167,8.8
brinnis,51.5167,12.4333
brischko,51.3833,14.2667
bristow,53.7167,12.6167
britten,49.5167,6.6833
brittheim,48.3,8.6833
britz,52.8833,13.8
britzingen,47.8282,7.6717
brobberow,53.9667,12.05
brobergen,53.6,9.1833
brochdorf,53.05,9.6833
brochenzell,47.7,9.55
brochterbeck,52.2167,7.75
brock,51.8333,7.7833
brockau,50.6167,12.2333
brockel,52.5167,10.2167
brockelbeck,53.7,9.0833
brockhagen,51.9833,8.35
brockhausen,51.3667,7.8333
brockhofe,53.0167,10.3
brock ostbevern,52.0667,7.8667
brockscheid,50.1333,6.85
brockum,52.4667,8.4167
brockwitz,51.1333,13.5333
broda,53.55,13.2333
brodau,51.5,12.3333
brodenaundorf,51.4667,12.35
brodenbach,50.2333,7.45
brodersby,54.5333,9.7167
brodersdorf,54.3833,10.25
broderstorf,54.0833,12.2667
brodhagen,54.1,11.85
brodowin,52.9167,13.95
broeleck,50.8333,7.4
broellin,53.4667,14.05
broggingen,48.2333,7.8333
brohl,50.2167,7.2833
brohl lutzing,50.4833,7.3333
brohsen,51.2333,12.8
broich,50.85,6.1833
broicherhof,51.1,6.4
broichweiden,50.8333,6.1833
broistedt,52.1833,10.3167
broitzem,52.2333,10.4833
brokdorf,53.8667,9.3333
brokeln,51.9667,9.4667
brokenlande,54.0167,9.9333
brokstedt,53.9833,9.8167
brombach,47.6344,7.6926
brombachtal,49.7325,8.9622
brome,52.6,10.95
bromsenberg,53.3333,11.0667
bromskirchen,51.0833,8.6167
bronkow,51.6667,13.9167
bronn,49.4406,9.8911
bronnacker,49.4442,9.4831
bronnamberg,49.45,10.9
bronnbach,49.7125,9.55
bronnen,48.0833,9.8833
bronnweiler,48.45,9.1333
bronnzell,50.5167,9.6667
broock,53.4667,12.1167
brook,52.1667,6.9167
brookhusen,53.9833,12.0667
brookseite,53.15,8.5667
brosang,51.15,14.3333
brosen,51.15,12.3167
brosen tautendorf,51.15,12.9
brosgen,50.9667,13.75
brossnitz,51.3667,13.6667
brotdorf,49.4667,6.6667
brothen,51.4333,14.1833
brotterode,50.8333,10.4333
brottewitz,51.4667,13.2167
brual,53.1,7.2833
brubbach,50.65,7.6
bruch,50.8833,7.9
bruchau,52.6833,11.2333
bruchermuhle,50.9167,7.6333
bruchertseifen,50.75,7.7167
bruchhausen,50.8333,7.3
bruchhausen vilsen,52.8333,9
bruchkobel,50.1833,8.9167
bruchlingen,49.295,9.8639
bruchmachtersen,52.1333,10.3167
bruchmuhlbach,49.3833,7.4667
bruchmuhlbach miesau,49.3833,7.4333
bruchmuhle,52.55,13.7833
bruchmuhlen,52.2,8.45
bruchsal,49.1281,8.5836
bruchstedt,51.1833,10.7833
bruchtorf,53.1167,10.55
bruchweiler,49.8,7.2333
bruchweiler barenbach,49.1167,7.8
bruck,49.25,12.3
bruck bei nittenau,49.25,12.3
bruck in der oberpfalz,49.25,12.3
bruckberg,48.5333,12
bruckbergerau,48.5167,12.0167
bruckdorf,51.45,12.0333
brucke,51.2167,6.65
brucken,48.5667,9.45
bruckenau,50.3,9.8
bruckerhof,47.7667,11.05
bruckermark,52.2833,12.4833
bruckhausen,51.35,6.3333
bruckmuhl,47.8833,11.9167
bruckner,47.8333,11.4167
bruckrachdorf,50.55,7.6833
brucktal,50.3167,6.9833
bruder,51.5833,8.1
bruderhaus,48.6167,8.6167
brudersdorf,49.45,12.1
bruehl,49.3972,8.5336
bruel,53.7333,11.7167
brugg,47.7167,9.55
brugge,54.1833,10.0667
bruggelchen,51.0667,5.9833
bruggen,51.25,6.1833
brugger,48.3333,11.15
bruggerholz,54.2,10.0833
bruheim,51,10.5833
bruhl,50.8333,6.9
bruhlhof,48.2333,9.5667
brullsen,52.15,9.5
brumby,51.9,11.7167
brummerloh,52.6167,8.7167
brun,50.9667,7.8167
brunau,52.75,11.4667
brundel,51.75,11.65
brundeln,52.25,10.1833
brundersen,51.3,9.1833
brune,52.7833,9.0167
brunebeck,51.45,7.4167
brunen,51.7167,6.6833
brungershausen,50.8667,8.6333
brungsberg,50.6833,7.3167
brunkau,52.5,11.7
brunken,50.7333,7.7667
brunkensen,51.9833,9.7667
brunn,52.9167,12.5
brunnbichl,47.65,11.75
brunne,52.7667,12.7333
brunnen,47.8333,9.85
brunnenthal,50.35,11.8667
brunningsen,51.5,8.05
brunnstadt,49.9,10.3
brunntal,49.6833,9.7
brunnthal,49.6833,9.7
brunow,52.7333,13.8667
brunsbrock,52.95,9.4
brunsbuttel,53.9,9.15
brunsee,48.7833,10.7167
brunsholm,54.3833,9.2833
brunsmark,53.6167,10.7333
brunst,49.2167,10.4667
brunstorf,53.5,10.4333
brunswick,52.2667,10.5333
bruntrup,51.9333,9
brunzendorf,49.3667,10.1333
brunzow,54.1,13.5667
bruschied,49.8333,7.4
brusendorf,52.3167,13.5167
brusenhagen,53.0333,12.3167
brusewitz,53.6833,11.25
brusow,54.0667,11.8167
brussow,54,13.6167
bruttendorf,53.2667,9.2833
bruttig,50.1333,7.2333
bruttig fankel,50.1333,7.2333
brutzkow,53.7833,11.0833
brux,54.2833,9.8667
bubach,50.0667,7.55
bubenhausen,49.25,7.35
bubenheim,49.6281,8.1178
bubenorbis,49.0831,9.615
bubenreuth,49.6333,11.0167
bubesheim,48.4333,10.25
bubing,48.2833,12.3333
bubingen,49.1667,7.0333
bubkevitz,54.5,13.35
buborn,49.6333,7.55
bubsheim,48.1167,8.8333
buch,47.6167,8.1167
buch am buchrain,48.2167,12
buch am erlbach,48.45,12.05
buch am wald,49.3333,10.3333
bucha,51.3833,13.0333
buchau,48.0667,9.6167
buchbach,50.5,11.2833
buchberg,47.7167,12.1833
buchbrunn,49.7667,10.1333
buchdorf,48.7833,10.8333
buchel,50.1667,7.0833
buchelberg,49.1294,9.5992
bucheloh,50.7167,10.9833
buchen,49.5239,9.3231
buchenau,49.1033,8.5292
buchenbach,47.9667,8.0167
buchenberg,47.6,10.35
buchenbeuren,49.9167,7.2667
buchenbrink,51.9667,9.8
buchenbronn,48.7333,9.5
buchenbuhl,47.5667,9.8833
buchendorf,48.0667,11.4
buchenhain,53.3167,13.55
buchenhof,51.6833,8.7333
bucher,49.35,12.7667
buches,50.3,9.0667
buchet,50.2333,6.3167
buchfart,50.9167,11.3333
buchfeld,49.7333,10.7
buchhain,51.65,13.3833
buchheim,50.9667,7.0167
buchhofen,48.7,12.9167
buchholz,53.4167,9.4333
buchholz in der nordheide,53.3333,9.8667
buchhorn,49.05,9.7667
buchhorst,52.6667,13.4
buchig,49.0475,8.4658
buching,47.6167,10.8
buchklingen,49.55,8.7333
buchlberg,48.6667,13.5
buchloe,48.0333,10.7333
buchold,50.0167,9.95
buchrain,47.9167,12.05
buchschwabach,49.3333,10.8833
buchten,52.7333,9.5833
buchwald,51.5167,14.0167
buchwaldchen,51.7,14.0167
buchweizenkamp,53.1167,7.5833
buckau,51.6667,13.1667
buckeburg,52.2667,9.05
bucken,53.9667,9.6
buckenberg,48.9,8.7333
buckenhof,49.6,11.05
buckenreuth,49.7667,11.2333
buckow,52.4167,13.45
buckow i,52.4167,13.4167
buckwitz,52.8667,12.4833
budberg,51.5333,6.6333
buddenhagen,53.3,12.3
buddenstedt,52.1667,11
budding,51.35,7.4167
budelsdorf,54.3167,9.6833
buden,52.15,11.8333
budenbach,50.0333,7.5667
budenheim,50.0167,8.1667
buderich,51.25,6.7
budesheim,49.95,7.9167
budingen,50.3,9.1167
budlich,49.7833,6.9
buemke,51.2667,8.2167
buer,51.6,7.05
bufleben,51,10.7333
bugenmuhlerhof,49.5833,7.7
bugewitz,53.8,13.8333
buggeln,53.3167,8.7
buggenhagen,54.0042,13.6918
buggensegel,47.75,9.3
buggingen,47.8488,7.6365
buggow,53.95,13.7333
bugk,52,13.8333
buglau,48.8667,12.7833
buhl,48.7,8.15
buhla,51.4333,10.4333
buhlau,51.0667,13.8667
buhlbach,48.5167,8.2667
buhlbronn,48.85,9.5167
buhlen,48.2667,8.4167
buhlenberg,49.65,7.1167
buhlendorf,52.0333,12.0333
buhlenhausen,48.4667,9.7833
buhlenholz,51.7333,8.6667
buhler,48.1833,7.9
buhlerhohe,48.6667,8.2333
buhlertal,48.6833,8.1833
buhlertann,49.0417,9.9086
buhlerzell,49.0033,9.9206
buhlerzimmern,49.1503,9.7936
buhlhof,48.8,10.7
buhling,49.1167,12.9333
buhlingen,48.1333,8.6333
buhne,51.5833,9.3
buhnsdorf,53.8833,10.3833
buhren,51.05,7.8
buir,50.4833,6.7333
buisdorf,50.7833,7.2333
bujendorf,54.1167,10.7167
buke,51.7333,8.9333
buko,51.95,12.4
bulach,48.9833,8.3833
buldern,51.8667,7.3667
bulitz,52.9333,11.0167
bulkau,53.75,8.9667
bullay,50.0667,7.1333
bullenhausen,53.45,10.0833
bullenhorst,53.6833,10.4667
bullenkuhlen,53.7667,9.75
bullesbach,50.7333,7.35
bullsbull,54.7833,9
bulow,53.5833,11.7667
bulowerburg,53.7833,12.1167
bulstringen,52.3167,11.35
bult,53.1167,9.6833
bulten,52.2667,10.2
bultum,52.0333,10.0667
bulzig,51.9,12.75
bulzingen,48.0333,8.7667
bummerstede,53.0833,8.2
buna,50.6,12.0833
bunde,52.2,8.5833
bundenbach,49.8333,7.4167
bundenthal,49.1,7.8
bunderhee,53.2167,7.3
bundorf,50.2167,10.5167
bunge,54.4333,9.3333
bungelshausen,52.8833,9.0833
